"stop_id","stop_code","stop_name","stop_desc","stop_lat","stop_lon","location_type","parent_station","wheelchair_boarding","platform_code"
"de:02000:11001::100001","","HBF/Mönckebergstraße",,"53.551556380270","10.004336739078",0,,0,""
"de:02000:10002:4:100009","","Hauptbahnhof/ZOB",,"53.552234521393","10.011293645735",0,,0,""
"de:02000:10003::100011","","U S Berliner Tor (Beim Strohhause)",,"53.553392017810","10.024147086846",0,,0,""
"de:02000:10005::100012","","Borgfelder Straße",,"53.554731926280","10.034455548553",0,,0,""
"de:02000:10010::100018","","Hübbesweg",,"53.554596921436","10.061130795811",0,,0,""
"de:02000:10006:2:100021","","U Burgstraße",,"53.555632766459","10.041434040266",0,,0,""
"de:02000:10005::100024","","Borgfelder Straße",,"53.554689638345","10.033111534259",0,,0,""
"de:02000:10003::100025","","U S Berliner Tor (Beim Strohhause)",,"53.553507702403","10.023229437905",0,,0,""
"de:02000:10002:3:100028","","Hauptbahnhof/ZOB",,"53.552377313288","10.010346456343",0,,0,""
"de:02000:10023::100034","","Spaldingstraße",,"53.547144008722","10.010795030360",0,,0,""
"de:02000:10022::100035","","Lippeltstraße",,"53.545493742156","10.015734191262",0,,0,""
"de:02000:10021::100036","","Nagelsweg",,"53.543024648990","10.022885916116",0,,0,""
"de:02000:10021::100047","","Nagelsweg",,"53.543975321179","10.020992947955",0,,0,""
"de:02000:10022::100048","","Lippeltstraße",,"53.545706784175","10.016041024852",0,,0,""
"de:02000:10023::100049","","Spaldingstraße",,"53.547782955271","10.012801775835",0,,0,""
"de:02000:10024::100050","","U Steinstraße (Deichtorplatz)",,"53.548603258132","10.006107442776",0,,0,""
"de:02000:10004::100087","","U S Berliner Tor (Bürgerweide)",,"53.553312959506","10.026031324554",0,,0,""
"de:02000:10004::100088","","U S Berliner Tor (Bürgerweide)",,"53.552940569938","10.025448925630",0,,0,""
"de:02000:10006:1:100092","","U Burgstraße",,"53.556318746718","10.040047502142",0,,0,""
"de:02000:10006:1:100094","","U Burgstraße",,"53.556091401674","10.040358816805",0,,0,""
"de:02000:10006:2:100096","","U Burgstraße",,"53.555909546158","10.041637013592",0,,0,""
"de:02000:10008::100101","","Beim Hammer Marktplatz",,"53.557072355426","10.054537838436",0,,0,""
"de:02000:10009:1:100103","","U Hammer Kirche",,"53.555554015900","10.054515147379",0,,0,""
"de:02000:10009:1:100104","","U Hammer Kirche",,"53.555391575404","10.055612673044",0,,0,""
"de:02000:10006:2:100105","","U Burgstraße",,"53.556003104056","10.042242919773",0,,0,""
"de:02000:10007::100108","","Saling",,"53.559033253333","10.048172852487",0,,0,""
"de:02000:10011::100133","","HBF/Spitalerstraße",,"53.552632996351","10.005599541755",0,,0,""
"de:02000:60015:2:100135","","U Wartenau",,"53.563669120260","10.033798363482",0,,1,""
"de:02000:60015:1:100136","","U Wartenau",,"53.563821944945","10.034828412370",0,,1,""
"de:02000:10049::100137","","U Lohmühlenstraße",,"53.556855255000","10.019492383421",0,,0,""
"de:02000:10050::100138","","Böckmannstraße",,"53.554888386537","10.015159583777",0,,0,""
"de:02000:10050::100139","","Böckmannstraße",,"53.554666359283","10.014852472431",0,,0,""
"de:02000:10049::100140","","U Lohmühlenstraße",,"53.557594289242","10.021336138022",0,,0,""
"de:02000:10048::100141","","U Lübecker Straße",,"53.560046410640","10.028775025604",0,,0,""
"de:02000:10051::100142","","HBF/Kirchenallee",,"53.552920980381","10.008744890834",0,,0,""
"de:02000:10052::100143","","Gurlittstraße",,"53.557338990239","10.011204188799",0,,0,""
"de:02000:10053::100144","","AK St. Georg",,"53.560040462189","10.014754808492",0,,0,""
"de:02000:10054::100145","","Graumannsweg",,"53.562963213658","10.017632035121",0,,0,""
"de:02000:10053::100146","","AK St. Georg",,"53.560069590255","10.014498949290",0,,0,""
"de:02000:10052::100147","","Gurlittstraße",,"53.557482089455","10.011283056747",0,,0,""
"de:02000:10051::100148","","HBF/Kirchenallee",,"53.554075718821","10.008198976686",0,,0,""
"de:02000:10011::100150","","HBF/Spitalerstraße",,"53.552437514330","10.005338393375",0,,0,""
"de:02000:10048::100151","","U Lübecker Straße",,"53.560172050304","10.028793167683",0,,0,""
"de:02000:10047::100152","","S Landwehr (Ramazan-Avci-Platz)",,"53.561095673357","10.037327462392",0,,0,""
"de:02000:10046::100154","","Carl-Petersen-Straße",,"53.559237079008","10.038202532896",0,,0,""
"de:02000:10059::100155","","Alfredstraße",,"53.557283808200","10.031333722502",0,,0,""
"de:02000:10059::100157","","Alfredstraße",,"53.557438990217","10.033133288100",0,,0,""
"de:02000:10046::100158","","Carl-Petersen-Straße",,"53.558826528393","10.038916850107",0,,0,""
"de:02000:10046::100160","","Carl-Petersen-Straße",,"53.559888942895","10.038671250784",0,,0,""
"de:02000:10047::100161","","S Landwehr (Ramazan-Avci-Platz)",,"53.561166624798","10.037434843405",0,,0,""
"de:02000:10044:2:100163","","Wendenstraße",,"53.547169740718","10.028839686111",0,,0,""
"de:02000:10039::100164","","Süderstraße",,"53.545477861779","10.030186576569",0,,0,""
"de:02000:10031::100166","","Billstraße",,"53.541084510793","10.033247651395",0,,0,""
"de:02000:10039::100167","","Süderstraße",,"53.546007501481","10.030244706569",0,,0,""
"de:02000:10044:2:100168","","Wendenstraße",,"53.547463600686","10.029148560134",0,,0,""
"de:02000:10040::100181","","Ausschläger Weg (LBV)",,"53.547266104348","10.037441640171",0,,0,""
"de:02000:10040::100182","","Ausschläger Weg (LBV)",,"53.547274508083","10.038543200791",0,,0,""
"de:02000:10032::100183","","Grüne Brücke",,"53.543606988704","10.040776568862",0,,0,""
"de:02000:10033::100184","","Billstraße 133",,"53.538938089239","10.047570491787",0,,0,""
"de:02000:10034::100185","","Billstraße 185",,"53.537028871097","10.054190205680",0,,0,""
"de:02000:10035::100186","","Billstraße (Mitte)",,"53.536222397404","10.056990707837",0,,0,""
"de:02000:10036::100187","","Gustav-Kunst-Straße",,"53.537566655408","10.059422509552",0,,0,""
"de:02000:61063::100188","","Langer Hagen",,"53.536025535072","10.064994920492",0,,0,""
"de:02000:10036::100189","","Gustav-Kunst-Straße",,"53.537545880519","10.059738746690",0,,0,""
"de:02000:10035::100190","","Billstraße (Mitte)",,"53.536183528577","10.057321568129",0,,0,""
"de:02000:10034::100191","","Billstraße 185",,"53.537240412436","10.053637374358",0,,0,""
"de:02000:10033::100192","","Billstraße 133",,"53.538964510978","10.047631480948",0,,0,""
"de:02000:10032::100193","","Grüne Brücke",,"53.543650986852","10.040883249297",0,,0,""
"de:02000:10040::100194","","Ausschläger Weg (LBV)",,"53.547672735390","10.039246967837",0,,0,""
"de:02000:10041::100195","","Luisenweg",,"53.548155834510","10.046696887031",0,,0,""
"de:02000:10042::100196","","Schadesweg",,"53.547602156724","10.052446521728",0,,0,""
"de:02000:10042::100197","","Schadesweg",,"53.547706153965","10.051860701725",0,,0,""
"de:02000:11033::100213","","Kunsthalle",,"53.554965234859","10.001791906209",0,,0,""
"de:02000:11001::110001","","HBF/Mönckebergstraße",,"53.551500717538","10.003475375014",0,,0,""
"de:02000:11002::110002","","Gerhart-Hauptmann-Platz",,"53.550773220488","9.998071647454",0,,0,""
"de:02000:11002::110007","","Gerhart-Hauptmann-Platz",,"53.550784760542","9.998841419872",0,,0,""
"de:02000:11027:2:110009","","U Hallerstraße",,"53.573261289057","9.988622913829",0,,1,""
"de:02000:11003:3:110011","","Rathausmarkt",,"53.550403025761","9.993974052885",0,,0,""
"de:02000:11003:3:110021","","Rathausmarkt",,"53.550384556617","9.994033972185",0,,0,""
"de:02000:11003:1:110028","","Rathausmarkt",,"53.551006184715","9.993837313999",0,,0,""
"de:02000:11027:2:110030","","U Hallerstraße",,"53.573440087846","9.988732761723",0,,1,""
"de:02000:11003:2:110031","","Rathausmarkt",,"53.550534643435","9.994354343180",0,,0,""
"de:02000:11003:2:110032","","Rathausmarkt",,"53.551134589657","9.993523469055",0,,0,""
"de:02000:11016::110034","","Museum am Rothenbaum",,"53.568429217737","9.988374282902",0,,0,""
"de:02000:11016::110040","","Museum am Rothenbaum",,"53.568455295139","9.988480553053",0,,0,""
"de:02000:11005:1:110045","","Michaeliskirche",,"53.549164852655","9.978510346654",0,,0,""
"de:02000:11005:2:110047","","Michaeliskirche",,"53.549417754499","9.978350219663",0,,0,""
"de:02000:11019::110050","","Heinrich-Hertz-Turm",,"53.564709509340","9.976318604986",0,,0,""
"de:02000:11007::110051","","Museum für Hamburgische Geschichte",,"53.550262510455","9.973933835967",0,,0,""
"de:02000:11007::110052","","Museum für Hamburgische Geschichte",,"53.551459562216","9.974791207088",0,,0,""
"de:02000:11008::110053","","Handwerkskammer",,"53.553258996521","9.976703641910",0,,0,""
"de:02000:11008::110054","","Handwerkskammer",,"53.553126829687","9.976383726010",0,,0,""
"de:02000:11009:1:110055","","Johannes-Brahms-Platz",,"53.554975939808","9.978810501759",0,,0,""
"de:02000:11009:1:110056","","Johannes-Brahms-Platz",,"53.555103317399","9.978617276850",0,,0,""
"de:02000:11010::110057","","Axel-Springer-Platz",,"53.552310005497","9.985040950336",0,,0,""
"de:02000:11009:2:110059","","Johannes-Brahms-Platz",,"53.554468427110","9.981529986125",0,,0,""
"de:02000:11009:2:110060","","Johannes-Brahms-Platz",,"53.554813646677","9.981070202048",0,,0,""
"de:02000:11012::110062","","U Gänsemarkt",,"53.555490520665","9.988344115828",0,,1,""
"de:02000:11012::110063","","U Gänsemarkt",,"53.555244468054","9.988760892563",0,,1,""
"de:02000:11013:2:110064","","U Stephansplatz",,"53.557847480555","9.989093262196",0,,0,""
"de:02000:11013:2:110065","","U Stephansplatz",,"53.557617525567","9.988650265442",0,,0,""
"de:02000:11013:1:110070","","U Stephansplatz",,"53.558069578068","9.988313723208",0,,0,""
"de:02000:11013:1:110071","","U Stephansplatz",,"53.558355432938","9.988516572358",0,,0,""
"de:02000:11034::110072","","Oberstraße",,"53.578003394676","9.988884605518",0,,0,""
"de:02000:11033::110073","","Kunsthalle",,"53.555534995690","10.001352676320",0,,0,""
"de:02000:11014:1:110074","","Sievekingplatz",,"53.555957413292","9.977459975147",0,,0,""
"de:02000:11029::110081","","U Hoheluftbrücke",,"53.578314229166","9.976209519481",0,,0,""
"de:02000:11022:3:110100","","Bf. Dammtor",,"53.561655034998","9.990449882385",0,,1,""
"de:02000:11022:2:110101","","Bf. Dammtor",,"53.560840148725","9.990113905506",0,,1,""
"de:02000:11022:2:110103","","Bf. Dammtor",,"53.561307798118","9.990064465711",0,,1,""
"de:02000:11022:1:110105","","Bf. Dammtor",,"53.561106759134","9.991553867321",0,,1,""
"de:02000:11023::110106","","Fontenay",,"53.564192031442","9.994403190324",0,,0,""
"de:02000:11023::110108","","Fontenay",,"53.564658175672","9.994534877249",0,,0,""
"de:02000:11021::110110","","Universität/Staatsbibliothek",,"53.564565052678","9.984073144262",0,,0,""
"de:02000:11021::110114","","Universität/Staatsbibliothek",,"53.564099765860","9.983835941944",0,,0,""
"de:02000:11021::110115","","Universität/Staatsbibliothek",,"53.564320878848","9.984263682114",0,,0,""
"de:02000:11035::110116","","Grindelhof",,"53.566880694389","9.981108145647",0,,0,""
"de:02000:11035::110119","","Grindelhof",,"53.567269963869","9.980754903215",0,,0,""
"de:02000:11028:1:110120","","Bezirksamt Eimsbüttel",,"53.572320971425","9.978411234598",0,,0,""
"de:02000:11028:2:110122","","Bezirksamt Eimsbüttel",,"53.572141051203","9.978437269836",0,,0,""
"de:02000:11027:1:110125","","U Hallerstraße",,"53.572743353682","9.989320338194",0,,1,""
"de:02000:11027:1:110128","","U Hallerstraße",,"53.572635799955","9.989287633784",0,,1,""
"de:02000:11025:4:110133","","Alsterchaussee",,"53.572307379470","9.994216322410",0,,0,""
"de:02000:11024::110135","","Böttgerstraße",,"53.568136283973","9.995522201282",0,,0,""
"de:02000:11024::110136","","Böttgerstraße",,"53.568486770743","9.995515343880",0,,0,""
"de:02000:11022:1:110137","","Bf. Dammtor",,"53.560848236041","9.991306348254",0,,1,""
"de:02000:11014:2:110139","","Sievekingplatz",,"53.556953121456","9.977664027088",0,,0,""
"de:02000:11041:2:110177","","U Baumwall",,"53.544054230972","9.981545328232",0,,1,""
"de:02000:11041:1:110178","","U Baumwall",,"53.544398955379","9.981145988439",0,,1,""
"de:02000:11046::110187","","Bei St. Annen",,"53.545532565756","9.997254292109",0,,0,""
"de:01062:32007::320026","","Stapelfeld, Reinbeker Straße",,"53.605085237985","10.218641767365",0,,0,""
"de:01062:32008::320028","","Stapelfeld, Heinrich-Ruge-Straße",,"53.605285523138","10.212196421928",0,,0,""
"de:01062:32009::320029","","Stapelfeld, Am Schwartenreeten",,"53.605365690320","10.200686414449",0,,0,""
"de:01062:32009::320031","","Stapelfeld, Am Schwartenreeten",,"53.605334458290","10.200217180320",0,,0,""
"de:01062:32008::320032","","Stapelfeld, Heinrich-Ruge-Straße",,"53.605215305004","10.209369220501",0,,0,""
"de:02000:32032::320136","","Gewerbepark Merkur (Süd)",,"53.603382868392","10.188695386689",0,,0,""
"de:02000:32032::320137","","Gewerbepark Merkur (Süd)",,"53.603131965296","10.187721477418",0,,0,""
"000000320149","","320149",,"53.605269859803","10.195003100498",0,,0,""
"de:01060:36008::360013","","Garstedt, Kohfurth",,"53.688400612016","9.984023775454",0,,0,""
"de:01060:36009::360014","","Garstedt, Aurikelstieg",,"53.690175482157","9.988894223700",0,,0,""
"de:01060:36009::360054","","Garstedt, Aurikelstieg",,"53.690061072661","9.988603918877",0,,0,""
"de:01060:36008::360055","","Garstedt, Kohfurth",,"53.689335535316","9.985059818631",0,,0,""
"de:01060:36029::360082","","Garstedt, ARRIBA-Bad",,"53.688544439274","9.997045342049",0,,0,""
"de:01060:36030::360083","","Garstedt, Breslauer Straße",,"53.684070465175","9.998044501010",0,,0,""
"de:01060:36030::360084","","Garstedt, Breslauer Straße",,"53.683907879978","9.998146604605",0,,0,""
"de:01060:36029::360085","","Garstedt, ARRIBA-Bad",,"53.687642187117","9.997493263052",0,,0,""
"de:01060:36010::360296","","Garstedt, Marommer Straße (Ost)",,"53.690690056914","9.996187777767",0,,0,""
"de:01060:36010::360297","","Garstedt, Marommer Straße (Ost)",,"53.691189761094","9.994443527108",0,,0,""
"de:02000:44007::400001","","Harmsstraße",,"53.454701777023","9.976185378999",0,,0,""
"de:02000:42013::400002","","Eißendorfer Straße (TU Hamburg)",,"53.459474814661","9.971567408400",0,,0,""
"de:02000:42019::400003","","Kasernenstraße (TU Hamburg)",,"53.463538451402","9.971298881098",0,,0,""
"de:02000:42028::400004","","Berkefeldweg",,"53.470588349880","9.952800937643",0,,0,""
"de:02000:40013::400005","","S Harburg Rathaus (Hölertwiete)",,"53.461527869918","9.982018389857",0,,0,""
"de:02000:40001::400007","","Knoopstraße/Bremer Straße",,"53.458067787774","9.981005064721",0,,0,""
"de:02000:40002::400009","","Moorstraße",,"53.456900662556","9.986337696643",0,,0,""
"de:02000:40000::400013","","Schellerdamm",,"53.466015758560","9.988054952209",0,,0,""
"de:02000:40004::400015","","S Harburg Rathaus",,"53.460589767396","9.981364365674",0,,1,""
"de:02000:40004::400016","","S Harburg Rathaus",,"53.460873031789","9.978600539292",0,,1,""
"de:02000:40014::400018","","S Harburg Rathaus (Eißendorfer Straße)",,"53.459951164961","9.977058670706",0,,1,""
"de:02000:40001::400021","","Knoopstraße/Bremer Straße",,"53.456827841345","9.978808560906",0,,0,""
"de:02000:40006::400023","","Seehafenbrücke (Amtsgericht)",,"53.464940873228","9.977820809423",0,,0,""
"de:02000:40007::400024","","Unterelbestraße",,"53.467228436075","9.970570016704",0,,0,""
"de:02000:40008::400025","","Grumbrechtstraße",,"53.468214876735","9.967490401609",0,,0,""
"de:02000:40009::400026","","Bissingstraße",,"53.469650440107","9.962192041157",0,,0,""
"de:02000:40009::400027","","Bissingstraße",,"53.469251384944","9.963764232111",0,,0,""
"de:02000:40008::400028","","Grumbrechtstraße",,"53.467747546254","9.968609172238",0,,0,""
"de:02000:40007::400029","","Unterelbestraße",,"53.466649962306","9.972092763501",0,,0,""
"de:02000:40006::400030","","Seehafenbrücke (Amtsgericht)",,"53.464998843577","9.977325235867",0,,0,""
"de:02000:40011::400034","","Neuländer Straße",,"53.466853480260","9.992140202058",0,,0,""
"de:02000:40012::400037","","Süderelbe (Süd)",,"53.470530911039","9.994018136434",0,,0,""
"de:02000:40012::400039","","Süderelbe (Süd)",,"53.470151248995","9.993211099008",0,,0,""
"de:02000:40011::400040","","Neuländer Straße",,"53.466205416254","9.991191469710",0,,0,""
"de:02000:40004::400042","","S Harburg Rathaus",,"53.460796718358","9.979140809741",0,,1,""
"de:02000:40003::400045","","Harburger Ring",,"53.459272184121","9.984239723018",0,,0,""
"de:02000:40000::400047","","Schellerdamm",,"53.466000655751","9.987708263863",0,,0,""
"de:02000:40004::400057","","S Harburg Rathaus",,"53.460618698224","9.981124133564",0,,1,""
"de:03353:41010::410007","","Neu Wulmstorf, Hauptstraße",,"53.463757288266","9.798733010784",0,,0,""
"de:02000:41011::410010","","Cuxhavener Straße (West)",,"53.467281134622","9.809174442418",0,,0,""
"de:02000:41012::410013","","An de Geest",,"53.470610540375","9.819011482624",0,,0,""
"de:02000:41013::410015","","Neckersstücken",,"53.471288466443","9.821042560508",0,,0,""
"de:02000:41014::410016","","Ohrnsweg",,"53.473838182782","9.822658129935",0,,0,""
"de:02000:41015::410018","","Fischbeker Heuweg",,"53.471028043209","9.827528273367",0,,0,""
"de:02000:41016::410019","","Rostweg",,"53.471412544802","9.831677223612",0,,0,""
"de:02000:41017::410020","","Geutensweg",,"53.472328970726","9.840671035971",0,,0,""
"de:02000:41018::410021","","Schule Fischbek",,"53.472612126307","9.843839301438",0,,0,""
"de:02000:41019::410026","","S Neugraben",,"53.473655509281","9.853800069668",0,,1,""
"de:02000:41018::410029","","Schule Fischbek",,"53.472769582709","9.844444842154",0,,0,""
"de:02000:41017::410030","","Geutensweg",,"53.472267266340","9.839224037790",0,,0,""
"de:02000:41016::410031","","Rostweg",,"53.471653708943","9.833172878313",0,,0,""
"de:02000:41015::410033","","Fischbeker Heuweg",,"53.471466688845","9.826467561223",0,,0,""
"de:02000:41014::410034","","Ohrnsweg",,"53.473918660959","9.821409645417",0,,0,""
"de:02000:41013::410035","","Neckersstücken",,"53.471573289182","9.820129407231",0,,0,""
"de:02000:41012::410038","","An de Geest",,"53.469822615070","9.818604759624",0,,0,""
"de:02000:41011::410039","","Cuxhavener Straße (West)",,"53.467327076097","9.809024732861",0,,0,""
"de:03353:41010::410041","","Neu Wulmstorf, Hauptstraße",,"53.463733154937","9.798310958076",0,,0,""
"de:03353:41008::410049","","Neu Wulmstorf, Freibad",,"53.459810881470","9.805689908933",0,,0,""
"de:02000:41019::410054","","S Neugraben",,"53.473603757636","9.853497816603",0,,1,""
"de:02000:41031::410055","","Georg-Heyken-Straße",,"53.482767750179","9.900154164420",0,,0,""
"de:02000:41038::410058","","Neugrabener Markt",,"53.470560447891","9.854370404799",0,,0,""
"de:02000:41041::410060","","Fischbeker Holtweg",,"53.467524204652","9.859263639116",0,,0,""
"de:02000:41043::410063","","Neugrabener Heideweg",,"53.462146369687","9.866111122340",0,,0,""
"de:02000:41044::410064","","Lüttmattensteed",,"53.458999419055","9.866393305302",0,,0,""
"de:02000:41045::410065","","Bauernholztal",,"53.456831734850","9.866695404774",0,,0,""
"de:02000:41046::410066","","Quellgrund",,"53.453055345498","9.867039951261",0,,0,""
"de:02000:41047::410067","","Waldfrieden (Kehre)",,"53.449399808055","9.868064250164",0,,0,""
"de:02000:41046::410068","","Quellgrund",,"53.453315338365","9.867120518539",0,,0,""
"de:02000:41045::410069","","Bauernholztal",,"53.456229034194","9.866788504515",0,,0,""
"de:02000:41044::410070","","Lüttmattensteed",,"53.459466265129","9.866447983647",0,,0,""
"de:02000:41043::410071","","Neugrabener Heideweg",,"53.462307646778","9.866174634156",0,,0,""
"de:02000:41041::410074","","Fischbeker Holtweg",,"53.467296329985","9.860960637991",0,,0,""
"de:02000:41038::410075","","Neugrabener Markt",,"53.471062481234","9.854531093156",0,,0,""
"de:03353:41007::410079","","Neu Wulmstorf, Breslauer Straße",,"53.460368091494","9.803005454422",0,,0,""
"de:03353:41008::410081","","Neu Wulmstorf, Freibad",,"53.459851534150","9.806323020832",0,,0,""
"de:02000:41040::410084","","Fischbeker Heideweg",,"53.459306112695","9.851238545344",0,,0,""
"de:02000:41039::410085","","Grundheide",,"53.464183587868","9.855236044206",0,,0,""
"de:02000:41039::410087","","Grundheide",,"53.464471727054","9.855151495470",0,,0,""
"de:02000:41040::410088","","Fischbeker Heideweg",,"53.459438727904","9.851542313102",0,,0,""
"de:02000:41037::410090","","Francoper Straße",,"53.471434218032","9.864056430837",0,,0,""
"de:02000:41035::410093","","Opferberg",,"53.471928553512","9.877590449825",0,,0,""
"de:02000:41034::410094","","Talweg",,"53.472031401138","9.884354580013",0,,0,""
"de:02000:41033::410095","","Hausbruch",,"53.471675157095","9.894783771030",0,,0,""
"de:02000:41032::410097","","Haake",,"53.470865552821","9.902070711082",0,,0,""
"de:02000:42033::410098","","Försterkamp",,"53.470526169142","9.915963565397",0,,0,""
"de:02000:41030::410103","","Zum Dubben",,"53.473966258814","9.904350463486",0,,0,""
"de:02000:41032::410106","","Haake",,"53.471191358836","9.900571637501",0,,0,""
"de:02000:41033::410107","","Hausbruch",,"53.471821642007","9.893220605233",0,,0,""
"de:02000:41034::410108","","Talweg",,"53.472133608763","9.882685025618",0,,0,""
"de:02000:41037::410112","","Francoper Straße",,"53.470291004993","9.863099503153",0,,0,""
"de:02000:41036::410115","","S Neuwiedenthal",,"53.472915252835","9.874146917146",0,,0,""
"de:02000:41022::410116","","Rehrstieg",,"53.476817366722","9.875040516252",0,,0,""
"de:02000:41023::410119","","Twistering",,"53.477778962432","9.878690301176",0,,0,""
"de:02000:41024::410120","","Hardauring",,"53.478313144144","9.884229237563",0,,0,""
"de:02000:41025::410121","","Altwiedenthaler Straße",,"53.478114957765","9.887930441968",0,,0,""
"de:02000:41026::410122","","Hausbrucher Bahnhofstraße",,"53.477368090779","9.895295242386",0,,0,""
"de:02000:41027::410125","","Neuwiedenthaler Straße (Ost)",,"53.476775059476","9.898882531048",0,,0,""
"de:02000:41027::410130","","Neuwiedenthaler Straße (Ost)",,"53.477601588021","9.898900012993",0,,0,""
"de:02000:41028::410131","","Moorburger Kreuzung",,"53.496184822940","9.910579780483",0,,0,""
"de:02000:41028::410133","","Moorburger Kreuzung",,"53.495129424442","9.909939349483",0,,0,""
"de:02000:41027::410136","","Neuwiedenthaler Straße (Ost)",,"53.477157147166","9.898258009132",0,,0,""
"de:02000:41026::410137","","Hausbrucher Bahnhofstraße",,"53.477584313403","9.894019516322",0,,0,""
"de:02000:41025::410138","","Altwiedenthaler Straße",,"53.478110589109","9.888517780787",0,,0,""
"de:02000:41024::410139","","Hardauring",,"53.478331154571","9.883009559296",0,,0,""
"de:02000:41023::410140","","Twistering",,"53.477866142860","9.879053596862",0,,0,""
"de:02000:41022::410143","","Rehrstieg",,"53.476737061884","9.874963553750",0,,0,""
"de:02000:41035::410147","","Opferberg",,"53.471977756305","9.875784250710",0,,0,""
"de:02000:41037::410148","","Francoper Straße",,"53.471471295608","9.862656611054",0,,0,""
"de:02000:41022::410150","","Rehrstieg",,"53.477214597352","9.873557559607",0,,0,""
"de:02000:41020::410152","","Neuwiedenthaler Straße (West)",,"53.476803760048","9.862087067222",0,,0,""
"de:02000:41020::410153","","Neuwiedenthaler Straße (West)",,"53.476716419176","9.861738874427",0,,0,""
"de:02000:41022::410155","","Rehrstieg",,"53.476898664703","9.874981942709",0,,0,""
"de:02000:41032::410157","","Haake",,"53.471364903857","9.901388550802",0,,0,""
"de:02000:41031::410158","","Georg-Heyken-Straße",,"53.482802210144","9.900350726284",0,,0,""
"de:02000:41012::410159","","An de Geest",,"53.469748573117","9.818919578412",0,,0,""
"de:02000:41048::410164","","Heykenaukamp (Kehre)",,"53.477854406773","9.909418803045",0,,0,""
"de:02000:41048::410165","","Heykenaukamp (Kehre)",,"53.478176797728","9.909561263237",0,,0,""
"de:02000:41049::410168","","Neumoorstück",,"53.476945361429","9.866111458742",0,,0,""
"de:02000:41021::410171","","Friedhof Neuwiedenthal",,"53.476350135451","9.867650679413",0,,0,""
"de:02000:41021::410172","","Friedhof Neuwiedenthal",,"53.476338416453","9.869262037709",0,,0,""
"de:02000:41050::410176","","Heykenauweg (Süd)",,"53.479429463677","9.900776338099",0,,0,""
"de:02000:41050::410177","","Heykenauweg (Süd)",,"53.479793375660","9.901371506013",0,,0,""
"de:02000:41050::410183","","Heykenauweg (Süd)",,"53.479413091644","9.901755072224",0,,0,""
"de:02000:41058::410205","","Ringheide",,"53.462013955154","9.854560029209",0,,0,""
"de:02000:41058::410206","","Ringheide",,"53.461907007484","9.854437427577",0,,0,""
"de:02000:41019::410211","","S Neugraben",,"53.473601335698","9.852579066958",0,,0,""
"de:02000:41036::410213","","S Neuwiedenthal",,"53.472895741207","9.874357362128",0,,0,""
"de:02000:41036::410214","","S Neuwiedenthal",,"53.472876449782","9.874537690571",0,,0,""
"de:02000:42023::64202301","","Heimfelder Straße 123",,"53.460939270158","9.940163281795",0,,0,""
"de:02000:42033::420001","","Försterkamp",,"53.470462093875","9.917287432705",0,,0,""
"de:02000:42001::420002","","Rickelstraße",,"53.448783128988","9.949091397666",0,,0,""
"de:02000:42002::420003","","Beerentalweg",,"53.448333982795","9.943406833152",0,,0,""
"de:02000:42003::420004","","Strucksbarg",,"53.449973923726","9.937121185267",0,,0,""
"de:02000:42003::420005","","Strucksbarg",,"53.449841648099","9.937946151588",0,,0,""
"de:02000:42002::420006","","Beerentalweg",,"53.448338619438","9.942819914171",0,,0,""
"de:02000:42001::420007","","Rickelstraße",,"53.448850452585","9.949664876685",0,,0,""
"de:02000:44016::420008","","Göhlbachtal",,"53.453500080165","9.954781554690",0,,0,""
"de:02000:42010::420011","","Lübbersweg",,"53.455877923501","9.955196240081",0,,0,""
"de:02000:42011::420012","","Mehringweg",,"53.456858974410","9.960592862568",0,,0,""
"de:02000:42012::420013","","Dempwolffstraße",,"53.457805549622","9.965778180541",0,,0,""
"de:02000:42013::420014","","Eißendorfer Straße (TU Hamburg)",,"53.459098179901","9.970369405234",0,,0,""
"de:02000:42012::420015","","Dempwolffstraße",,"53.458126498829","9.967200669974",0,,0,""
"de:02000:42011::420016","","Mehringweg",,"53.456938618193","9.960745210400",0,,0,""
"de:02000:42010::420017","","Lübbersweg",,"53.455965955903","9.955424035399",0,,0,""
"de:02000:42005::420021","","Auf der Jahnhöhe",,"53.453781412706","9.929377115057",0,,0,""
"de:02000:42006::420023","","Ehestorfer Weg (Mitte)",,"53.455003279564","9.937442748180",0,,0,""
"de:02000:42007::420024","","Bünte",,"53.455276711899","9.942657559247",0,,0,""
"de:02000:42008::420025","","Lichtenauerweg",,"53.455059115158","9.946310912100",0,,0,""
"de:02000:42009::420027","","Gellersenweg",,"53.454890038098","9.949498633207",0,,0,""
"de:02000:42009::420028","","Gellersenweg",,"53.455060579331","9.947259360714",0,,0,""
"de:02000:42007::420030","","Bünte",,"53.455309200411","9.943094854146",0,,0,""
"de:02000:42006::420031","","Ehestorfer Weg (Mitte)",,"53.454990982326","9.936719876221",0,,0,""
"de:02000:42005::420033","","Auf der Jahnhöhe",,"53.453981362292","9.930239551570",0,,0,""
"de:02000:42016::420038","","Lohmannsweg",,"53.464205865781","9.957641933857",0,,0,""
"de:02000:42017::420039","","Thörlstraße",,"53.464558975834","9.959547144125",0,,0,""
"de:02000:42018::420040","","S Heimfeld",,"53.465217636107","9.962558517624",0,,0,""
"de:02000:42019::420042","","Kasernenstraße (TU Hamburg)",,"53.463733599944","9.970505300719",0,,0,""
"de:02000:42018::420043","","S Heimfeld",,"53.465210715155","9.962302377763",0,,0,""
"de:02000:42017::420044","","Thörlstraße",,"53.464656104450","9.959760142924",0,,0,""
"de:02000:42016::420045","","Lohmannsweg",,"53.464105421022","9.956721168028",0,,0,""
"de:02000:42024::420060","","Eißendorfer Pferdeweg (Mitte)",,"53.462896134203","9.950625987149",0,,0,""
"de:02000:42024::420061","","Eißendorfer Pferdeweg (Mitte)",,"53.462872178341","9.950249026809",0,,0,""
"de:02000:42026::420068","","Lühmannstraße",,"53.457678719414","9.946835907823",0,,0,""
"de:02000:42027::420069","","Triftstraße",,"53.457777520316","9.943435636294",0,,0,""
"de:02000:42028::420075","","Berkefeldweg",,"53.470722169524","9.951794932266",0,,0,""
"de:02000:42029::420077","","Eißendorfer Pferdeweg (Nord)",,"53.471100954040","9.944830678938",0,,0,""
"de:02000:42030::420078","","Krankenhaus Mariahilf",,"53.471018189333","9.935943520694",0,,0,""
"de:02000:42031::420079","","Bostelbek",,"53.470898785975","9.931678965045",0,,0,""
"de:02000:42032::420081","","Moorstieg",,"53.470643116077","9.920619533204",0,,0,""
"de:02000:44017::420082","","Seestücken",,"53.449411599745","9.953666244051",0,,0,""
"de:02000:42032::420083","","Moorstieg",,"53.470549676834","9.921084359443",0,,0,""
"de:02000:42031::420084","","Bostelbek",,"53.470830139569","9.932415389992",0,,0,""
"de:02000:42030::420086","","Krankenhaus Mariahilf",,"53.470947862913","9.936890741724",0,,0,""
"de:02000:42029::420088","","Eißendorfer Pferdeweg (Nord)",,"53.470935588409","9.946423346449",0,,0,""
"de:02000:42038::420090","","Forstweg",,"53.459695730313","9.938329087627",0,,0,""
"de:02000:42035::420098","","Zum Fürstenmoor",,"53.471830707242","9.930856022861",0,,0,""
"de:02000:42035::420099","","Zum Fürstenmoor",,"53.471735936306","9.931486471928",0,,0,""
"de:02000:42036::420100","","Am Radeland",,"53.471846239176","9.925389532141",0,,0,""
"de:02000:42036::420101","","Am Radeland",,"53.471793618971","9.925222725305",0,,0,""
"de:02000:42037::420102","","Heykenaubrook",,"53.471880696533","9.920932479019",0,,0,""
"de:02000:42037::420103","","Heykenaubrook",,"53.471888867541","9.921038077070",0,,0,""
"de:02000:42029::420104","","Eißendorfer Pferdeweg (Nord)",,"53.470140435827","9.945848440091",0,,0,""
"de:02000:42040::420105","","Hainholzweg (Mitte)",,"53.450680303671","9.929520101524",0,,0,""
"de:02000:42041::420106","","Große Straße",,"53.450635553915","9.923708807536",0,,0,""
"de:02000:42041::420107","","Große Straße",,"53.450508962963","9.923811426894",0,,0,""
"de:02000:42040::420108","","Hainholzweg (Mitte)",,"53.450568461448","9.931188497865",0,,0,""
"de:03353:43014::430015","","Fleestedt, Mühlenweg",,"53.414063659035","9.984503339639",0,,0,""
"de:02000:43017::430020","","Rönneburger Kirchweg",,"53.428728313054","9.982299805205",0,,0,""
"de:02000:43018::430021","","Buchholzer Weg",,"53.432031711565","9.983790363853",0,,0,""
"de:02000:43020::430024","","Freudenthalweg",,"53.439794643025","9.988213585886",0,,0,""
"de:02000:43021::430026","","Winsener Straße (Nord)",,"53.445953184807","9.991050752474",0,,0,""
"de:02000:43022::430027","","Reeseberg",,"53.451301408564","9.987577687668",0,,0,""
"de:02000:43021::430028","","Winsener Straße (Nord)",,"53.446916201652","9.990862463928",0,,0,""
"de:02000:43020::430031","","Freudenthalweg",,"53.439063322807","9.987549514417",0,,0,""
"de:02000:43018::430034","","Buchholzer Weg",,"53.431192930322","9.983078872228",0,,0,""
"de:02000:43017::430035","","Rönneburger Kirchweg",,"53.428039402159","9.981937882695",0,,0,""
"de:02000:43016:1:430037","","Sinstorfer Kirchweg",,"53.424213305964","9.980631140491",0,,0,""
"de:03353:43014::430041","","Fleestedt, Mühlenweg",,"53.414001640157","9.984396627966",0,,0,""
"de:02000:43052::430060","","Maretstraße (Bürgerzentrum)",,"53.452182407547","9.983172483577",0,,0,""
"de:02000:43027::430062","","Haithabuweg",,"53.424977590403","9.968463403843",0,,0,""
"de:02000:43027::430066","","Haithabuweg",,"53.425164344003","9.967595117662",0,,0,""
"de:02000:43053::430067","","Freizeitbad MidSommerland",,"53.447868419029","9.981101015682",0,,0,""
"de:02000:43053::430068","","Freizeitbad MidSommerland",,"53.447788306483","9.981008858147",0,,0,""
"de:03353:43026::430069","","Hirschkäferweg",,"53.426476409718","9.960900201826",0,,0,""
"de:03353:43026::430070","","Hirschkäferweg",,"53.426237740065","9.961526665988",0,,0,""
"de:03353:43055::430071","","Meckelfeld, Hillenklint",,"53.426029654736","10.018042342947",0,,0,""
"de:03353:43055::430076","","Meckelfeld, Hillenklint",,"53.425396684646","10.018508612534",0,,0,""
"de:03353:43036::430079","","Meckelfeld, Roggenkamp",,"53.415321654675","10.026103688806",0,,0,""
"de:03353:43039::430080","","Meckelfeld, Lönsring",,"53.418841607818","10.026384027163",0,,0,""
"de:03353:43040::430082","","Meckelfeld, Am Felde (Bf. Meckelfeld)",,"53.422527418294","10.029315952709",0,,0,""
"de:03353:43056::430083","","Meckelfeld, Am Blöcken",,"53.428404545853","10.015616719681",0,,0,""
"de:03353:43056::430084","","Meckelfeld, Am Blöcken",,"53.428485143831","10.015648732075",0,,0,""
"de:03353:43040::430085","","Meckelfeld, Am Felde (Bf. Meckelfeld)",,"53.422814768379","10.029337940956",0,,0,""
"de:03353:43034::430086","","Meckelfeld, An den Höfen",,"53.422329749984","10.024091337074",0,,0,""
"de:03353:43033::430087","","Meckelfeld, Rönneburger Straße",,"53.422068196105","10.018955499918",0,,0,""
"de:03353:43032::430088","","Meckelfeld, Helbach-Haus",,"53.422004896171","10.015840160231",0,,0,""
"de:03353:43031::430089","","Meckelfeld, Alter Kirchweg",,"53.422400907654","10.011532331972",0,,0,""
"de:03353:43030::430090","","Meckelfeld, Buchenhain",,"53.422766301893","10.005508812004",0,,0,""
"de:03353:43029::430091","","Meckelfeld, Waldquelle",,"53.424150358870","9.996906598850",0,,0,""
"de:02000:43028::430093","","Höpengrund",,"53.424879842220","9.992395547818",0,,0,""
"de:02000:43028::430096","","Höpengrund",,"53.424682798415","9.993398873266",0,,0,""
"de:03353:43029::430098","","Meckelfeld, Waldquelle",,"53.423841823803","9.998343528448",0,,0,""
"de:03353:43030::430099","","Meckelfeld, Buchenhain",,"53.422848935593","10.004232115351",0,,0,""
"de:03353:43031::430100","","Meckelfeld, Alter Kirchweg",,"53.422389820367","10.010719759525",0,,0,""
"de:03353:43032::430101","","Meckelfeld, Helbach-Haus",,"53.421989360377","10.015553979762",0,,0,""
"de:03353:43033::430102","","Meckelfeld, Rönneburger Straße",,"53.421991321570","10.018487339042",0,,0,""
"de:03353:43034::430103","","Meckelfeld, An den Höfen",,"53.422222332005","10.024043625823",0,,0,""
"de:03353:43035::430105","","Meckelfeld, Lerchenweg",,"53.417114268685","10.026628181489",0,,0,""
"de:03353:43036::430106","","Meckelfeld, Roggenkamp",,"53.413818585455","10.025345575870",0,,0,""
"de:03353:43037::430107","","Meckelfeld, Schulzentrum",,"53.412776135606","10.024312846898",0,,0,""
"de:03353:43037::5600701","","Meckelfeld, Schulzentrum",,"53.412508041930","10.024140968708",0,,0,""
"de:02000:43016:2:430112","","Sinstorfer Kirchweg",,"53.425045468960","9.981056483391",0,,0,""
"de:02000:43042::430113","","An der Eiche",,"53.434245294014","10.010309070757",0,,0,""
"de:02000:43043::430114","","Küstersweg",,"53.437588571882","10.003842494298",0,,0,""
"de:02000:43044::430115","","Radickestraße",,"53.440035299545","10.001387024708",0,,0,""
"de:02000:43046::430117","","Mensingstraße",,"53.442558702270","9.997277589627",0,,0,""
"de:02000:43021::430118","","Winsener Straße (Nord)",,"53.444941124267","9.991734563461",0,,0,""
"de:02000:43046::430119","","Mensingstraße",,"53.442703574351","9.997145535477",0,,0,""
"de:02000:43044::430120","","Radickestraße",,"53.439852467692","10.001758945701",0,,0,""
"de:02000:43045::430123","","Höpenstraße",,"53.441473363983","10.003482643368",0,,0,""
"de:02000:43043::430124","","Küstersweg",,"53.437478615265","10.004095718346",0,,0,""
"de:02000:43042::430125","","An der Eiche",,"53.434079383109","10.010801680366",0,,0,""
"de:02000:43047::430126","","Zum Jägerfeld",,"53.435662893928","9.977102953914",0,,0,""
"de:02000:43047::430128","","Zum Jägerfeld",,"53.435702762525","9.977720813277",0,,0,""
"de:03353:43048::430131","","Meckelfeld, Mattenmoorstraße",,"53.421235295435","10.025975400645",0,,0,""
"de:03353:43048::430132","","Meckelfeld, Mattenmoorstraße",,"53.421183202648","10.025763552739",0,,0,""
"de:03353:43049::430133","","Glüsingen, Triftweg",,"53.410349997511","10.020118922233",0,,0,""
"de:03353:43050::430134","","Meckelfeld, Am Grasweg",,"53.417077179285","10.020475558449",0,,0,""
"de:03353:43050::430135","","Meckelfeld, Am Grasweg",,"53.416119257454","10.020061554926",0,,0,""
"de:03353:43049::430136","","Glüsingen, Triftweg",,"53.410238592611","10.020537332403",0,,0,""
"de:02000:43051::430150","","Sinstorfer Kirche",,"53.424217274152","9.973560852013",0,,0,""
"de:02000:43051::430151","","Sinstorfer Kirche",,"53.424201023776","9.973349873572",0,,0,""
"de:02000:43052::430152","","Maretstraße (Bürgerzentrum)",,"53.452098206041","9.983576974512",0,,0,""
"de:02000:43057::430159","","Marienkäferweg",,"53.425553882606","9.963873102404",0,,0,""
"de:03353:43033::430162","","Meckelfeld, Rönneburger Straße",,"53.421285680817","10.021148007905",0,,0,""
"de:03353:43033::430163","","Meckelfeld, Rönneburger Straße",,"53.421429292437","10.021166493759",0,,0,""
"de:02000:43057::430165","","Marienkäferweg",,"53.425312401391","9.964845478724",0,,0,""
"de:02000:43060::430172","","Vorderkamp",,"53.439532788600","10.010901097621",0,,0,""
"de:02000:43060::430173","","Vorderkamp",,"53.440049449151","10.010371605871",0,,0,""
"de:02000:43062::430174","","Grenzkehre",,"53.416535217954","9.984440138832",0,,0,""
"de:02000:43062::430175","","Grenzkehre",,"53.416669479910","9.984503404682",0,,0,""
"de:02000:43063::430176","","Außenmühle",,"53.450160237786","9.982132282676",0,,0,""
"de:02000:43063::430177","","Außenmühle",,"53.450267919963","9.982149821192",0,,0,""
"de:02000:43078::430195","","Einhausring",,"53.434002954640","9.989899793539",0,,0,""
"de:02000:44000::440000","","Eißendorfer Mühlenweg",,"53.448081010227","9.961598803559",0,,0,""
"de:02000:44001::440002","","Osterfeldweg",,"53.435981072751","9.972249911141",0,,0,""
"de:02000:44002::440003","","Feuerteichweg",,"53.436699952731","9.966713708347",0,,0,""
"de:02000:44003::440006","","Marmstorfer Kirche",,"53.439424838660","9.967543086852",0,,0,""
"de:02000:44004::440008","","Nymphenweg",,"53.441941256755","9.968593574113",0,,0,""
"de:02000:44005::440009","","Rabenstein",,"53.446445788504","9.969358368228",0,,0,""
"de:02000:44006::440011","","Marmstorfer Weg (Nord)",,"53.452124959642","9.972633898784",0,,0,""
"de:02000:44007::440012","","Harmsstraße",,"53.454925142303","9.976341047379",0,,0,""
"de:02000:44006::440014","","Marmstorfer Weg (Nord)",,"53.451526351134","9.972213781100",0,,0,""
"de:02000:44005::440015","","Rabenstein",,"53.445746634742","9.969146777552",0,,0,""
"de:02000:44004::440016","","Nymphenweg",,"53.441656213919","9.968286096119",0,,0,""
"de:02000:44003::440018","","Marmstorfer Kirche",,"53.439488213663","9.967484332658",0,,0,""
"de:02000:44002::440021","","Feuerteichweg",,"53.436276734928","9.966824477038",0,,0,""
"de:02000:44001::440022","","Osterfeldweg",,"53.435967637636","9.971692846572",0,,0,""
"de:02000:44014::440025","","Up den Wiemen (EKZ Marmstorf)",,"53.440667187246","9.959459837140",0,,0,""
"de:02000:44014::440032","","Up den Wiemen (EKZ Marmstorf)",,"53.440709687687","9.959761778626",0,,0,""
"de:02000:44013::440035","","Appelbütteler Weg",,"53.436588721836","9.934418823762",0,,0,""
"de:02000:44012::440036","","Langenberg",,"53.439619722020","9.942054894833",0,,0,""
"de:02000:44011::440037","","Schafshagenberg",,"53.440999025613","9.946028330792",0,,0,""
"de:02000:44010::440038","","Vogelhüttenberg",,"53.442738031710","9.949949856874",0,,0,""
"de:02000:44009::440040","","Neuer Friedhof",,"53.446370913277","9.957481288474",0,,0,""
"de:02000:44008::440041","","Gottschalkring",,"53.449722961515","9.966347303991",0,,0,""
"de:02000:44006::440042","","Marmstorfer Weg (Nord)",,"53.451287661253","9.970627769549",0,,0,""
"de:02000:44008::440043","","Gottschalkring",,"53.449760602270","9.966137425764",0,,0,""
"de:02000:44009::440045","","Neuer Friedhof",,"53.445729316780","9.955690840173",0,,0,""
"de:02000:44010::440047","","Vogelhüttenberg",,"53.442545293027","9.949328512423",0,,0,""
"de:02000:44011::440048","","Schafshagenberg",,"53.440656875130","9.944982334958",0,,0,""
"de:02000:44012::440049","","Langenberg",,"53.439548834028","9.940789232218",0,,0,""
"de:02000:44016::440052","","Göhlbachtal",,"53.452574136592","9.954836038318",0,,0,""
"de:02000:44017::440054","","Seestücken",,"53.449490050153","9.953969047865",0,,0,""
"de:02000:44015::440055","","Beutnerring",,"53.443302817585","9.955741693169",0,,0,""
"de:02000:44015::440056","","Beutnerring",,"53.443238243418","9.955950943579",0,,0,""
"de:02000:44000::440057","","Eißendorfer Mühlenweg",,"53.448240295523","9.961903440289",0,,0,""
"de:02000:49001::490000","","Bf. Harburg",,"53.457075769616","9.990150669714",0,,0,""
"de:02000:43022::490001","","Reeseberg",,"53.450770118406","9.987715881671",0,,0,""
"de:03353:49000::490004","","Groß Moor",,"53.445032508475","10.046295739093",0,,0,""
"de:02000:49001::490006","","Bf. Harburg",,"53.456566189111","9.989837710571",0,,0,""
"de:02000:49001::490007","","Bf. Harburg",,"53.457196552528","9.989671720477",0,,0,""
"de:02000:49001::490011","","Bf. Harburg",,"53.456669626010","9.990367037474",0,,1,""
"de:03353:49008::490012","","Fünfhausener Straße (Süd)",,"53.446067288051","10.033753460511",0,,0,""
"de:02000:49007::490013","","Kanzlershofer Weg",,"53.447866361095","10.023095351748",0,,0,""
"de:02000:49006::490014","","Großmoordamm 181",,"53.448914220059","10.017190004486",0,,0,""
"de:02000:49005::490015","","Großmoordamm 121",,"53.451401798011","10.009948770357",0,,0,""
"de:02000:49004::490016","","Großmoorbogen",,"53.453115686601","10.005970145923",0,,0,""
"de:02000:49003::490017","","Wohlersweg",,"53.455919203317","9.999547918148",0,,0,""
"de:03353:49000::490018","","Groß Moor",,"53.445147185747","10.046539372467",0,,0,""
"de:02000:49003::490019","","Wohlersweg",,"53.455711946398","9.999618320252",0,,0,""
"de:02000:49004::490020","","Großmoorbogen",,"53.453264117630","10.005416670541",0,,0,""
"de:02000:49005::490021","","Großmoordamm 121",,"53.451430149592","10.009783860208",0,,0,""
"de:02000:49006::490022","","Großmoordamm 181",,"53.448870198861","10.017083587130",0,,0,""
"de:02000:49007::490023","","Kanzlershofer Weg",,"53.447839280963","10.023109752341",0,,0,""
"de:03353:49008::490024","","Fünfhausener Straße (Süd)",,"53.446052056574","10.033437016281",0,,0,""
"de:02000:49001::490025","","Bf. Harburg",,"53.457002900444","9.989185455540",0,,0,""
"de:02000:49001::490026","","Bf. Harburg",,"53.456549968337","9.989626565805",0,,0,""
"de:02000:49901::499509","","Großmoorring",,"53.456874098895","10.008874311120",0,,0,""
"de:02000:49901::499510","","Großmoorring",,"53.455975130013","10.007859382815",0,,0,""
"de:02000:49903::499513","","Neuländer Weg",,"53.462929093246","10.006894912463",0,,0,""
"de:02000:49903::499514","","Neuländer Weg",,"53.462879857268","10.007405686932",0,,0,""
"de:02000:50001::500001","","Ziegelerstraße",,"53.498463486198","9.991175659569",0,,0,""
"de:02000:50003::500006","","Rathaus Wilhelmsburg",,"53.499215265857","9.996934847160",0,,0,""
"de:02000:50004::500007","","Dratelnstraße",,"53.498536663216","9.999646530448",0,,0,""
"de:02000:50003::500008","","Rathaus Wilhelmsburg",,"53.499490685569","9.996233021729",0,,0,""
"de:02000:50005::500011","","Rotenhäuser Straße (West)",,"53.504504032477","9.991979827918",0,,0,""
"de:02000:50006::500013","","Neuhöfer Straße (Ost)",,"53.510226661468","9.992113552447",0,,0,""
"de:02000:50007::500016","","Vogelhüttendeich",,"53.515966590943","9.993408569232",0,,0,""
"de:02000:50008::500017","","Werkcentrum Elbinsel",,"53.520032246578","10.000439311347",0,,0,""
"de:02000:50009::500018","","Harburger Chaussee",,"53.520740897129","10.006999687174",0,,0,""
"de:02000:50008::500019","","Werkcentrum Elbinsel",,"53.519987265524","9.998297273849",0,,0,""
"de:02000:50007::500021","","Vogelhüttendeich",,"53.515024805914","9.993205618996",0,,0,""
"de:02000:50006::500023","","Neuhöfer Straße (Ost)",,"53.509531660710","9.992489222562",0,,0,""
"de:02000:50005::500025","","Rotenhäuser Straße (West)",,"53.504522875811","9.991874765541",0,,0,""
"de:02000:50014::500026","","Neuhöfer Straße (Mitte)",,"53.510695649287","9.982115385690",0,,0,""
"de:02000:50012::500027","","Veringstraße (Mitte)",,"53.510424958652","9.987701535634",0,,0,""
"de:02000:50012::500028","","Veringstraße (Mitte)",,"53.510482971893","9.987205446364",0,,0,""
"de:02000:50007::500033","","Vogelhüttendeich",,"53.516404699111","9.992589642986",0,,0,""
"de:02000:50010::500039","","Stübenplatz",,"53.517509737151","9.987187980902",0,,0,""
"de:02000:50016::500040","","Industriestraße",,"53.517039777704","9.982066204668",0,,0,""
"de:02000:50002::500041","","Mengestraße",,"53.501631617183","9.991626378825",0,,0,""
"de:02000:50006::500043","","Neuhöfer Straße (Ost)",,"53.510562658938","9.992769585111",0,,0,""
"de:02000:51020::510000","","Norderkirchenweg",,"53.528255599756","9.864353882186",0,,0,""
"de:02000:51001::510001","","Estebogen",,"53.530620829469","9.772212787783",0,,0,""
"de:02000:51002::510002","","Altes Estesperrwerk",,"53.533600947438","9.775449328093",0,,0,""
"de:02000:51003::510003","","Cranz (Fähre)",,"53.535523431636","9.779647270258",0,,0,""
"de:02000:51004::510004","","Cranzer Elbdeich",,"53.540317427844","9.774757619528",0,,0,""
"de:02000:51005::510005","","Sperrwerk Estemündung",,"53.533766115189","9.794078544867",0,,0,""
"de:02000:51006::510006","","Neuenfelder Damm",,"53.529934126013","9.805452970742",0,,0,""
"de:02000:51008::510009","","AIRBUS",,"53.536549274633","9.848022112262",0,,0,""
"de:02000:51009::510010","","Rudolf-Kinau-Allee",,"53.535659937783","9.853041944720",0,,0,""
"de:02000:51010::510012","","Nordmeerstraße",,"53.534604219586","9.859928410181",0,,0,""
"de:02000:51011::510013","","Kneienblick",,"53.533912386874","9.866143280676",0,,0,""
"de:02000:51012::510014","","Norderschulweg",,"53.533456500369","9.875680829534",0,,0,""
"de:02000:51014::510017","","Finkenwerder (Fähre)",,"53.535138207642","9.879154371936",0,,0,""
"de:02000:51016::510020","","Emder Straße",,"53.530108847922","9.878823913685",0,,0,""
"de:02000:51017::510021","","Auedeich",,"53.526889367795","9.884065236087",0,,0,""
"de:02000:51018::510022","","Osterfelddeich",,"53.519745489178","9.885348709528",0,,0,""
"de:02000:51019::510023","","Aluminiumwerk",,"53.517913749009","9.890014336906",0,,0,""
"de:02000:51018::510024","","Osterfelddeich",,"53.520198642752","9.886036640264",0,,0,""
"de:02000:51017::510025","","Auedeich",,"53.526700087141","9.885358132065",0,,0,""
"de:02000:51016::510026","","Emder Straße",,"53.529784759350","9.878907682671",0,,0,""
"de:02000:51013::510027","","Steendiek",,"53.532814021945","9.878744232010",0,,0,""
"de:02000:51013::510029","","Steendiek",,"53.532786737325","9.878788911783",0,,0,""
"de:02000:51012::510031","","Norderschulweg",,"53.533478698432","9.876329811307",0,,0,""
"de:02000:51011::510032","","Kneienblick",,"53.533998344343","9.864199443728",0,,0,""
"de:02000:51010::510034","","Nordmeerstraße",,"53.534788890217","9.859238365041",0,,0,""
"de:02000:51009::510035","","Rudolf-Kinau-Allee",,"53.535664721532","9.853630265893",0,,0,""
"de:02000:51008::510037","","AIRBUS",,"53.536639864185","9.847918342674",0,,0,""
"de:02000:51006::510039","","Neuenfelder Damm",,"53.529838283711","9.806340904145",0,,0,""
"de:02000:51005::510040","","Sperrwerk Estemündung",,"53.534084568409","9.793481225418",0,,0,""
"de:02000:51004::510041","","Cranzer Elbdeich",,"53.540154636459","9.774920570894",0,,0,""
"de:02000:51003::510042","","Cranz (Fähre)",,"53.535382045755","9.779282690517",0,,0,""
"de:02000:51002::510043","","Altes Estesperrwerk",,"53.533932482023","9.775591128456",0,,0,""
"de:02000:51001::510044","","Estebogen",,"53.530432648227","9.772133957759",0,,0,""
"de:02000:51020::510045","","Norderkirchenweg",,"53.528239049591","9.864157504104",0,,0,""
"de:02000:51021::510046","","Finkenwerder Landscheideweg",,"53.528207707083","9.859783650811",0,,0,""
"de:02000:51022::510047","","Nordmeertwiete",,"53.531834341270","9.859012612899",0,,0,""
"de:02000:51010::510048","","Nordmeerstraße",,"53.534188479181","9.859015049780",0,,0,""
"de:02000:51022::510049","","Nordmeertwiete",,"53.531249729484","9.859091259322",0,,0,""
"de:02000:51021::510050","","Finkenwerder Landscheideweg",,"53.528999711486","9.859603660190",0,,0,""
"de:02000:51023::510056","","AIRBUS (Kehre)",,"53.536932488110","9.847200203502",0,,0,""
"de:02000:51023::510057","","AIRBUS (Kehre)",,"53.536833556746","9.847213310049",0,,0,""
"de:02000:51014::510062","","Finkenwerder (Fähre)",,"53.535319994779","9.878871571189",0,,0,""
"de:02000:51019::520002","","Aluminiumwerk",,"53.517679267433","9.890130029790",0,,0,""
"de:02000:52002::520027","","BAB-Auffahrt Waltershof",,"53.514043275149","9.911173937515",0,,0,""
"de:02000:52009::520039","","Zollamt Waltershof",,"53.520055186204","9.926274712399",0,,0,""
"de:02000:52009::520045","","Zollamt Waltershof",,"53.518810852296","9.926835545359",0,,0,""
"de:02000:50015::530001","","Ernastraße",,"53.518702693276","9.983084681521",0,,0,""
"de:02000:50014::530002","","Neuhöfer Straße (Mitte)",,"53.510796824194","9.981831320225",0,,0,""
"de:02000:52010::530003","","Nippoldstraße (Ost)",,"53.514674729024","9.969091874231",0,,0,""
"de:02000:53001::530004","","Neuhöfer Damm",,"53.512766378703","9.969515618427",0,,0,""
"de:02000:53001::530005","","Neuhöfer Damm",,"53.512974962245","9.969279186484",0,,0,""
"de:02000:52010::530007","","Nippoldstraße (Ost)",,"53.515405959271","9.968671377575",0,,0,""
"de:02000:53003::530009","","Röörfeld",,"53.518942905811","9.952318313300",0,,0,""
"de:02000:53005::530011","","Nippoldstraße (West)",,"53.520684271237","9.944622645504",0,,0,""
"de:02000:53019::530012","","Argentinienbrücke (Fähre)",,"53.527965665713","9.974432225519",0,,0,""
"de:02000:53006::530013","","Neuhof (Fähre)",,"53.524604081677","9.942071116308",0,,0,""
"de:02000:53007::530015","","Roßweg/HDW",,"53.523087524119","9.945234048828",0,,0,""
"de:02000:53007::530021","","Roßweg/HDW",,"53.523132920279","9.945174746782",0,,0,""
"de:02000:53006::530023","","Neuhof (Fähre)",,"53.525171489017","9.941902767000",0,,0,""
"de:02000:53005::530025","","Nippoldstraße (West)",,"53.520713367796","9.944351898447",0,,0,""
"de:02000:53000::530026","","Reiherstieg Hauptdeich",,"53.511204184583","9.978177721979",0,,0,""
"de:02000:53003::530027","","Röörfeld",,"53.519082467661","9.951718368551",0,,0,""
"de:02000:53010::530029","","Ernst-August-Deich",,"53.520645474128","9.981757637378",0,,0,""
"de:02000:53012::530031","","Klütjenfelder Straße",,"53.526325345841","9.980531915477",0,,0,""
"de:02000:53014::530035","","Nehlsstraße",,"53.530142924288","9.969671442104",0,,0,""
"de:02000:53015::530036","","Norderloch",,"53.537595452927","9.967006143116",0,,0,""
"de:02000:53016::530037","","Steinwerder (Alter Elbtunnel)",,"53.541798543981","9.966151644119",0,,0,""
"de:02000:53016::530038","","Steinwerder (Alter Elbtunnel)",,"53.541612567611","9.965815537599",0,,0,""
"de:02000:53015::530039","","Norderloch",,"53.537339879973","9.967498068299",0,,0,""
"de:02000:53014::530040","","Nehlsstraße",,"53.530116707186","9.969580357613",0,,0,""
"de:02000:53011::530043","","Ernst-August-Schleuse (Fähre)",,"53.523180679915","9.982690846110",0,,0,""
"de:02000:53001::530044","","Neuhöfer Damm",,"53.511522337247","9.967798886666",0,,0,""
"de:02000:53018::530046","","Steinwerder (Fähre)",,"53.540395007832","9.966376100182",0,,0,""
"de:02000:53018::530047","","Steinwerder (Fähre)",,"53.539717486156","9.965712035622",0,,0,""
"de:02000:53019::530048","","Argentinienbrücke (Fähre)",,"53.528136848504","9.974375836996",0,,0,""
"de:02000:53020::530053","","Roßkanal",,"53.522024500552","9.947849009735",0,,0,""
"de:02000:53020::530054","","Roßkanal",,"53.522304553410","9.947659251147",0,,0,""
"de:02000:53000::530055","","Reiherstieg Hauptdeich",,"53.511141174924","9.978191344098",0,,0,""
"de:02000:53004::530067","","Hachmannbrücke",,"53.520399025527","9.951129724369",0,,0,""
"de:02000:53004::530068","","Hachmannbrücke",,"53.520446464328","9.950814162257",0,,0,""
"de:02000:50004::540001","","Dratelnstraße",,"53.498418109525","9.999854714905",0,,0,""
"de:02000:50009::540002","","Harburger Chaussee",,"53.520768187766","10.008025611024",0,,0,""
"de:02000:54001::540003","","Kreuzkirche Kirchdorf",,"53.486874987407","10.015447082013",0,,0,""
"de:02000:54002::540004","","Am Papenbrack",,"53.488015252394","10.009191823532",0,,0,""
"de:02000:54003::540005","","Hinter der Dorfkirche",,"53.490423186995","10.008149148698",0,,0,""
"de:02000:54004::540006","","Schwentnerring",,"53.493576483467","10.010348570258",0,,0,""
"de:02000:54005::540014","","Krieterstraße",,"53.496371106788","10.009269811196",0,,0,""
"de:02000:54004::540017","","Schwentnerring",,"53.492818856794","10.009622368509",0,,0,""
"de:02000:54003::540018","","Hinter der Dorfkirche",,"53.490358266477","10.008388676840",0,,0,""
"de:02000:54002::540019","","Am Papenbrack",,"53.488012197222","10.009553334291",0,,0,""
"de:02000:54010::540022","","Neuenfelder Straße (Schule)",,"53.493245386342","10.013369328648",0,,0,""
"de:02000:54006::540025","","S Wilhelmsburg",,"53.497233758393","10.007135410121",0,,1,""
"de:02000:54006::540026","","S Wilhelmsburg",,"53.497486190974","10.007035911090",0,,1,""
"de:02000:54006::540027","","S Wilhelmsburg",,"53.497555265616","10.007369074752",0,,0,""
"de:02000:54006::540029","","S Wilhelmsburg",,"53.497231090306","10.007451800845",0,,0,""
"de:02000:54010::540031","","Neuenfelder Straße (Schule)",,"53.493945178319","10.012436735139",0,,0,""
"de:02000:54009::540032","","Aurubis Werk Ost",,"53.515294859660","10.034443859054",0,,0,""
"de:02000:54008::540033","","Siedenfelder Weg (Mitte)",,"53.495062947938","10.020464742884",0,,0,""
"de:02000:54007::540034","","Siedenfelder Weg (West)",,"53.496987387638","10.015010736579",0,,0,""
"de:02000:54007::540037","","Siedenfelder Weg (West)",,"53.496528725225","10.016114881032",0,,0,""
"de:02000:54008::540038","","Siedenfelder Weg (Mitte)",,"53.494944615739","10.020642721192",0,,0,""
"de:02000:54011::540039","","Thielenstraße (Ost)",,"53.500729683135","10.013442431085",0,,0,""
"de:02000:54012::540040","","Im Schönenfelde",,"53.500406210164","10.017669486706",0,,0,""
"de:02000:54013::540041","","Wilhelmsburger Mühle",,"53.499807616826","10.025672472857",0,,0,""
"de:02000:54014::540042","","Niedergeorgswerder Deich (Süd)",,"53.503405441553","10.027341882139",0,,0,""
"de:02000:54015::540043","","Hövelbrook",,"53.507292454657","10.022537269987",0,,0,""
"de:02000:54016::540044","","Rahmwerder Straße",,"53.511590667182","10.021118298397",0,,0,""
"de:02000:54017::540045","","Fiskalische Straße (Energieberg)",,"53.515998698661","10.020515783494",0,,0,""
"de:02000:54018::540050","","S Veddel",,"53.520991788232","10.013458885827",0,,0,""
"de:02000:54018::540051","","S Veddel",,"53.520991788232","10.013458885827",0,,0,""
"de:02000:54018::540052","","S Veddel",,"53.520823016865","10.013228690677",0,,0,""
"de:02000:54018::540053","","S Veddel",,"53.520558527424","10.013689778476",0,,0,""
"de:02000:54019::540060","","Wilhelmsburger Platz",,"53.522853636710","10.016413476226",0,,0,""
"de:02000:54019::540067","","Wilhelmsburger Platz",,"53.522899324278","10.016324100510",0,,0,""
"de:02000:54017::540068","","Fiskalische Straße (Energieberg)",,"53.516170674984","10.020369159022",0,,0,""
"de:02000:54016::540069","","Rahmwerder Straße",,"53.512544993049","10.020900061165",0,,0,""
"de:02000:54015::540070","","Hövelbrook",,"53.507501399779","10.022270990335",0,,0,""
"de:02000:54014::540071","","Niedergeorgswerder Deich (Süd)",,"53.503902780216","10.026977124732",0,,0,""
"de:02000:54013::540072","","Wilhelmsburger Mühle",,"53.499139146528","10.025038460311",0,,0,""
"de:02000:54012::540073","","Im Schönenfelde",,"53.500201763715","10.018463313431",0,,0,""
"de:02000:54011::540074","","Thielenstraße (Ost)",,"53.501151148577","10.013542913571",0,,0,""
"de:02000:54023::540075","","Hovestraße (Kehre)",,"53.516409072803","10.049893857838",0,,0,""
"de:02000:54024::540076","","Hovestraße 68",,"53.517757552301","10.045720852508",0,,0,""
"de:02000:54025::540077","","Hovestraße 49",,"53.519862753728","10.039244251005",0,,0,""
"de:02000:54026::540078","","Aurubis Zentrale",,"53.521793269267","10.033184944476",0,,0,""
"de:02000:54028::540081","","Peutestraße 22",,"53.524023213488","10.036119293189",0,,0,""
"de:02000:54005::540082","","Krieterstraße",,"53.496319877523","10.008952146544",0,,0,""
"de:02000:54034::540087","","Müggenburger Schleuse",,"53.513202987293","10.055814390921",0,,0,""
"de:02000:54033::540088","","Peutestraße 72",,"53.518766410501","10.051580487041",0,,0,""
"de:02000:54032::540089","","Peutestraße 50",,"53.520356051177","10.047579108994",0,,0,""
"de:02000:54031::540090","","Peuter Elbdeich",,"53.521574731276","10.043854790887",0,,0,""
"de:02000:54009::540091","","Aurubis Werk Ost",,"53.515330271986","10.034505024949",0,,0,""
"de:02000:54030::540092","","Georgswerder Damm",,"53.526793622632","10.026415265761",0,,0,""
"de:02000:54027::540094","","Hovestraße 44",,"53.522633559119","10.030566705068",0,,0,""
"de:02000:54026::540095","","Aurubis Zentrale",,"53.521627262017","10.033678474116",0,,0,""
"de:02000:54025::540096","","Hovestraße 49",,"53.519856261030","10.038957623093",0,,0,""
"de:02000:54024::540097","","Hovestraße 68",,"53.517455684379","10.046331549498",0,,0,""
"de:02000:54020::540100","","Hovestieg",,"53.525035539619","10.021864073043",0,,0,""
"de:02000:54000::540105","","Oberwerder Damm",,"53.525260970523","10.027011513315",0,,0,""
"de:02000:54020::540108","","Hovestieg",,"53.524443523796","10.021744262007",0,,0,""
"de:02000:54035::540118","","Algermissenstraße",,"53.497470356209","10.012098829088",0,,0,""
"de:02000:54035::540119","","Algermissenstraße",,"53.496866866812","10.011210438850",0,,0,""
"de:02000:54006::540124","","S Wilhelmsburg",,"53.497252487937","10.007045438805",0,,0,""
"de:02000:55029::550000","","Kattwykdamm",,"53.493074349155","9.975635610010",0,,0,""
"de:02000:50001::550001","","Ziegelerstraße",,"53.498383382682","9.991083372243",0,,0,""
"de:02000:54001::550002","","Kreuzkirche Kirchdorf",,"53.486858172521","10.015311089984",0,,0,""
"de:02000:55003::550006","","Weidendamm",,"53.480896078543","10.006311326529",0,,0,""
"de:02000:55004::550012","","Kornweide",,"53.481570864474","9.993327353108",0,,0,""
"de:02000:55024::550015","","Hohe Schaar",,"53.480321361035","9.982527945077",0,,0,""
"de:02000:55024::550026","","Hohe Schaar",,"53.480042120229","9.982611867574",0,,0,""
"de:02000:55003::550030","","Weidendamm",,"53.480841414782","10.006400412625",0,,0,""
"de:02000:55009::550032","","Heuckenlock",,"53.476241729636","10.038825025644",0,,0,""
"de:02000:55000::550033","","Kirchdorfer Straße (Museum Elbinsel)",,"53.491049970106","10.018997236198",0,,0,""
"de:02000:55001::550036","","Friedhof Finkenriek",,"53.474804234430","10.011589159714",0,,0,""
"de:02000:55005::550039","","König-Georg-Deich",,"53.477869719396","9.995379700602",0,,0,""
"de:02000:55030::550041","","Haulander Weg",,"53.488355037335","9.990065972585",0,,0,""
"de:02000:55023::550042","","Trettaustraße",,"53.493957398764","9.990618462085",0,,0,""
"de:02000:55023::550043","","Trettaustraße",,"53.493931447032","9.990497312460",0,,0,""
"de:02000:55030::550044","","Haulander Weg",,"53.488634782252","9.989921830372",0,,0,""
"de:02000:55012::550046","","Am Callabrack",,"53.482751636811","10.010030911609",0,,0,""
"de:02000:55013::550047","","Stübenhofer Weg",,"53.483885103533","10.012001176689",0,,0,""
"de:02000:55014::550052","","Karl-Arnold-Ring",,"53.485655536356","10.017255885220",0,,0,""
"de:02000:55015::550054","","Kirchdorf (Süd)",,"53.484425018017","10.019305355409",0,,0,""
"de:02000:55015::550055","","Kirchdorf (Süd)",,"53.484535392682","10.019006708165",0,,0,""
"de:02000:55014::550058","","Karl-Arnold-Ring",,"53.486777724407","10.018427735264",0,,0,""
"de:02000:55000::550059","","Kirchdorfer Straße (Museum Elbinsel)",,"53.490879408902","10.018978077815",0,,0,""
"de:02000:55014::550062","","Karl-Arnold-Ring",,"53.485827115278","10.016099972223",0,,0,""
"de:02000:55013::550065","","Stübenhofer Weg",,"53.484461638470","10.012888661914",0,,0,""
"de:02000:55012::550066","","Am Callabrack",,"53.482789609370","10.009790788251",0,,0,""
"de:02000:55006::550068","","Freiluftschule Moorwerder",,"53.463539453566","10.061943938313",0,,0,""
"de:02000:55016::550069","","Moorwerder Osterdeich",,"53.467539406414","10.060778903842",0,,0,""
"de:02000:55017::550070","","Moorwerder Mühle",,"53.470451692362","10.060670852628",0,,0,""
"de:02000:55018::550071","","Moorwerder Norderdeich (Ost)",,"53.473220239643","10.060559203152",0,,0,""
"de:02000:55019::550072","","Moorwerder Norderdeich (Fußweg)",,"53.476085136004","10.058702774897",0,,0,""
"de:02000:55020::550073","","Bauernstegel",,"53.479597493037","10.054753372890",0,,0,""
"de:02000:55022::550075","","Goetjensorter Deich",,"53.490611988805","10.047809760773",0,,0,""
"de:02000:55021::550077","","Einlagedeich",,"53.479346142264","10.045528604714",0,,0,""
"de:02000:55009::550078","","Heuckenlock",,"53.476484621822","10.039825049562",0,,0,""
"de:02000:55011::550080","","Schützenhof",,"53.480260799941","10.026059246944",0,,0,""
"de:02000:55011::550081","","Schützenhof",,"53.478423277100","10.023439179483",0,,0,""
"de:02000:55008::550092","","Moorwerder Hauptdeich 69",,"53.472609105286","10.046311711650",0,,0,""
"de:02000:55007::550093","","Moorwerder Hauptdeich 35",,"53.465868901220","10.055617440833",0,,0,""
"de:02000:55031::550096","","Blumensand",,"53.501793062417","9.966446811530",0,,0,""
"de:02000:55032::550103","","Rethehöft",,"53.503474039629","9.956311883578",0,,0,""
"de:02000:55032::550104","","Rethehöft",,"53.503464935172","9.956326749899",0,,0,""
"de:02000:55031::550105","","Blumensand",,"53.501696069097","9.966218542429",0,,0,""
"de:02000:55005::550110","","König-Georg-Deich",,"53.478018604182","9.994765628733",0,,0,""
"de:02000:40012::550111","","Süderelbe (Süd)",,"53.470682507007","9.994157219462",0,,0,""
"de:02000:55033::550115","","Burgweide",,"53.486569836929","10.022776674716",0,,0,""
"de:02000:55034::550116","","Stübenhofer Wettern",,"53.485246605771","10.024100673018",0,,0,""
"de:02000:55035::550117","","Dahlgrünring",,"53.483550271413","10.018621537617",0,,0,""
"de:02000:55013::550118","","Stübenhofer Weg",,"53.483697002317","10.012990950218",0,,0,""
"de:02000:55036::550125","","Auf der Hohen Schaar",,"53.497396386756","9.964568584655",0,,0,""
"de:02000:55037::550126","","Hohe-Schaar-Kamp",,"53.496319129772","9.971099073420",0,,0,""
"de:02000:61016::600001","","Tribünenweg",,"53.559584874695","10.081070816705",0,,0,""
"de:02000:61021::600002","","Caspar-Voght-Straße",,"53.560514736473","10.061535550342",0,,0,""
"de:02000:63001::600003","","Gladowstraße",,"53.579479216390","10.074029386677",0,,0,""
"de:02000:60001::600005","","Am Husarendenkmal",,"53.565132693514","10.077665413877",0,,0,""
"de:02000:60002::600006","","Ziesenißstraße",,"53.567639280495","10.074710308149",0,,0,""
"de:02000:60007:3:600012","","U Wandsbek Markt",,"53.571872839873","10.068537849795",0,,0,""
"de:02000:60007:3:600013","","U Wandsbek Markt",,"53.572273315143","10.068970641115",0,,0,""
"de:02000:60007:3:600021","","U Wandsbek Markt",,"53.572073037552","10.068256077873",0,,0,""
"de:02000:60002::600034","","Ziesenißstraße",,"53.567467646273","10.074811613878",0,,0,""
"de:02000:60001::600035","","Am Husarendenkmal",,"53.564148333358","10.078213913537",0,,0,""
"de:02000:60003::600038","","Bahngärten",,"53.570481346724","10.078405306272",0,,1,""
"de:02000:60007:1:600039","","U Wandsbek Markt",,"53.571509510120","10.067970141933",0,,0,""
"de:02000:60008:2:600040","","Wendemuthstraße",,"53.574315398423","10.073717266595",0,,0,""
"de:02000:60009::600042","","Hogrevestraße",,"53.576786060157","10.072753271664",0,,0,""
"de:02000:60009::600043","","Hogrevestraße",,"53.576929523447","10.072787101254",0,,0,""
"de:02000:60008:2:600044","","Wendemuthstraße",,"53.574955557522","10.074473247755",0,,0,""
"de:02000:60008:1:600045","","Wendemuthstraße",,"53.574978323732","10.075938231485",0,,0,""
"de:02000:60006::600047","","Hammer Straße",,"53.569177316601","10.062477180899",0,,0,""
"de:02000:60005:1:600048","","Bf. Hasselbrook",,"53.565296644654","10.057293345254",0,,0,""
"de:02000:60005:2:600049","","Bf. Hasselbrook",,"53.564513082393","10.057500188753",0,,0,""
"de:02000:60010::600052","","U S Wandsbeker Chaussee",,"53.570021036356","10.058528311064",0,,0,""
"de:02000:60010::600053","","U S Wandsbeker Chaussee",,"53.569913769618","10.058465249879",0,,0,""
"de:02000:63050::600054","","Holzmühlenstraße",,"53.576597609572","10.081701345139",0,,0,""
"de:02000:60024::600055","","U Alter Teichweg",,"53.586119731912","10.064956085110",0,,0,""
"de:02000:60026::600057","","Schön Klinik Eilbek",,"53.578660782640","10.049836307977",0,,0,""
"de:02000:60027::600058","","Gluckstraße",,"53.571583362054","10.039199543255",0,,0,""
"de:02000:60029::600059","","Uferstraße",,"53.567118035524","10.030848613196",0,,0,""
"de:02000:60015:3:600060","","U Wartenau",,"53.564501063015","10.034226180062",0,,1,""
"de:02000:60015:4:600061","","U Wartenau",,"53.562955005071","10.033252696749",0,,1,""
"de:02000:60012::600064","","U Ritterstraße",,"53.567210980219","10.043952596629",0,,0,""
"de:02000:60012::600065","","U Ritterstraße",,"53.567154838621","10.044207813451",0,,0,""
"de:02000:60011::600068","","Fichtestraße",,"53.568510731838","10.051486658201",0,,0,""
"de:02000:60013:2:600069","","Wagnerstraße",,"53.570121474442","10.039918436094",0,,0,""
"de:02000:60016:2:600074","","Maxstraße",,"53.572134212593","10.047123316319",0,,0,""
"de:02000:60016:1:600075","","Maxstraße",,"53.570996064331","10.048831162731",0,,0,""
"de:02000:60017:2:600077","","Seumestraße",,"53.573589524542","10.052276990407",0,,0,""
"de:02000:60017:1:600078","","Seumestraße",,"53.572992771059","10.054737945727",0,,0,""
"de:02000:60018:1:600080","","S Friedrichsberg",,"53.575748961789","10.058052492165",0,,1,""
"de:02000:60018:2:600081","","S Friedrichsberg",,"53.576508143935","10.058569677433",0,,1,""
"de:02000:60018:2:600082","","S Friedrichsberg",,"53.576702704883","10.058921784843",0,,1,""
"de:02000:60019::600085","","Krausestraße",,"53.580074264541","10.057677410509",0,,0,""
"de:02000:60019::600086","","Krausestraße",,"53.580376896133","10.058002046386",0,,0,""
"de:02000:60020::600088","","Straßburger Platz",,"53.581097644969","10.061840136024",0,,0,""
"de:02000:60020::600089","","Straßburger Platz",,"53.580925217093","10.062032099711",0,,0,""
"de:02000:60021::600090","","U Straßburger Straße",,"53.582242877488","10.066428919952",0,,0,""
"de:02000:60021::600095","","U Straßburger Straße",,"53.582448187711","10.068593337200",0,,0,""
"de:02000:60021::600096","","U Straßburger Straße",,"53.581825554756","10.067883050252",0,,0,""
"de:02000:63023::600099","","Eulenkamp",,"53.583454573123","10.072605134383",0,,0,""
"de:02000:60021::600100","","U Straßburger Straße",,"53.582907875636","10.067427156255",0,,0,""
"de:02000:60011::600102","","Fichtestraße",,"53.568530245664","10.052332442413",0,,0,""
"de:02000:63059::600103","","Kedenburgstraße",,"53.575043161071","10.087640056110",0,,0,""
"de:02000:60014::600104","","Josephstraße",,"53.572995578769","10.080582800795",0,,0,""
"de:02000:60014::600106","","Josephstraße",,"53.572666077170","10.078264682769",0,,0,""
"de:02000:70071::600114","","Lämmersieth (Mitte)",,"53.584196516432","10.053839235204",0,,0,""
"de:02000:60025::600115","","Wandsbeker Allee",,"53.579960538456","10.069451578325",0,,0,""
"de:02000:60025::600118","","Wandsbeker Allee",,"53.578925017688","10.069697195356",0,,0,""
"de:02000:60007:2:600125","","U Wandsbek Markt",,"53.571658124232","10.069438179643",0,,0,""
"de:02000:60007:3:600126","","U Wandsbek Markt",,"53.572335254241","10.069077876524",0,,0,""
"de:02000:60007:3:600127","","U Wandsbek Markt",,"53.572238939574","10.069800052742",0,,0,""
"de:02000:10010::610007","","Hübbesweg",,"53.554437101532","10.061926545041",0,,0,""
"de:02000:10008::610008","","Beim Hammer Marktplatz",,"53.557114676289","10.053814543796",0,,0,""
"de:02000:10007::610009","","Saling",,"53.558845393972","10.048077658522",0,,0,""
"de:02000:61039::610016","","Feuerwehrakademie Hamburg",,"53.526594519885","10.079596635090",0,,0,""
"de:02000:61040::610017","","Bredowstraße (Mitte)",,"53.524760065956","10.082731649105",0,,0,""
"de:02000:61041::610019","","Moorfleeter Straße (Süd)",,"53.523310691972","10.089947473048",0,,0,""
"de:02000:61001::610021","","Pinkertweg (Mitte)",,"53.527063370855","10.093255910415",0,,0,""
"de:02000:61003::610025","","Liebigstraße (Mitte)",,"53.532754573391","10.094850462939",0,,0,""
"de:02000:61034::610026","","Liebigstraße 30",,"53.534121685270","10.086831722542",0,,0,""
"de:02000:61032::610029","","Wöhlerstraße",,"53.535692895679","10.083010737157",0,,0,""
"de:02000:61034::610033","","Liebigstraße 30",,"53.534133822419","10.086485137168",0,,0,""
"de:02000:61003::610034","","Liebigstraße (Mitte)",,"53.532125183037","10.095874858056",0,,0,""
"de:02000:61038::610042","","Grusonstraße",,"53.531557318623","10.080280958604",0,,0,""
"de:02000:61035::610048","","Moorfleeter Straße (Mitte)",,"53.529317526055","10.094369654785",0,,0,""
"de:02000:61001::610049","","Pinkertweg (Mitte)",,"53.525205713825","10.092016778929",0,,0,""
"de:02000:61041::610050","","Moorfleeter Straße (Süd)",,"53.522689219872","10.088137180896",0,,0,""
"de:02000:61040::610051","","Bredowstraße (Mitte)",,"53.524630608782","10.083135480349",0,,0,""
"de:02000:61039::610052","","Feuerwehrakademie Hamburg",,"53.527463058165","10.078940134183",0,,0,""
"de:02000:61038::610059","","Grusonstraße",,"53.532091702128","10.079811953443",0,,0,""
"de:02000:61044::610060","","Borsigstraße (Mitte)",,"53.533335699433","10.074383883595",0,,0,""
"de:02000:61044::610061","","Borsigstraße (Mitte)",,"53.533393801878","10.073917808080",0,,0,""
"de:02000:61006::610076","","Billstedter Hauptstraße",,"53.540844569462","10.101364803535",0,,0,""
"de:02000:61008::610079","","U Billstedt",,"53.542055333745","10.107445455259",0,,1,""
"de:02000:61008::610082","","U Billstedt",,"53.542193297626","10.107102095621",0,,1,""
"de:02000:61007::610086","","Schiffbeker Höhe",,"53.547904460014","10.107492637693",0,,0,""
"de:02000:61007::610088","","Schiffbeker Höhe",,"53.547851076725","10.106465302653",0,,0,""
"de:02000:61009::610090","","Querkamp",,"53.551322372879","10.094439780909",0,,0,""
"de:02000:61007::610092","","Schiffbeker Höhe",,"53.547389894293","10.107750764576",0,,0,""
"de:02000:61024::610093","","U Rauhes Haus",,"53.554047288854","10.065342094513",0,,0,""
"de:02000:61025::610094","","Culinstraße",,"53.551999944413","10.073227333103",0,,0,""
"de:02000:61026::610095","","Bauerberg",,"53.550447832489","10.077955917587",0,,0,""
"de:02000:61027::610098","","Horner Rampe",,"53.547347018566","10.084998200734",0,,0,""
"de:02000:61028::610099","","Horner Brückenweg",,"53.545169182948","10.089317514522",0,,0,""
"de:02000:61029::610100","","Washingtonallee",,"53.542637119274","10.095015116287",0,,0,""
"de:02000:61006::610103","","Billstedter Hauptstraße",,"53.540685276058","10.100123712453",0,,0,""
"de:02000:61029::610111","","Washingtonallee",,"53.542110547151","10.096585474126",0,,0,""
"de:02000:61028::610114","","Horner Brückenweg",,"53.545481352020","10.088586297324",0,,0,""
"de:02000:61027::610115","","Horner Rampe",,"53.547613149690","10.084386435161",0,,0,""
"de:02000:61026::610117","","Bauerberg",,"53.549858735001","10.079510092099",0,,0,""
"de:02000:61025::610118","","Culinstraße",,"53.551973806850","10.073136138631",0,,0,""
"de:02000:61024::610119","","U Rauhes Haus",,"53.553817457249","10.065924804856",0,,0,""
"de:02000:61030::610120","","Eekholtesweg",,"53.540682888455","10.083666147491",0,,0,""
"de:02000:61031::610121","","Blaue Brücke",,"53.538284454723","10.083589773520",0,,0,""
"de:02000:61027::610122","","Horner Rampe",,"53.547775893297","10.085265661465",0,,0,""
"de:02000:61031::610123","","Blaue Brücke",,"53.539188907216","10.083929653846",0,,0,""
"de:02000:61030::610124","","Eekholtesweg",,"53.542047682500","10.083776453962",0,,0,""
"de:02000:61027::610125","","Horner Rampe",,"53.547793175221","10.085341540422",0,,0,""
"de:02000:61017::610128","","U Horner Rennbahn",,"53.554494289599","10.084577577552",0,,0,""
"de:02000:61016::610130","","Tribünenweg",,"53.559459925986","10.080977080249",0,,0,""
"de:02000:61017::610132","","U Horner Rennbahn",,"53.554006771943","10.083840805173",0,,0,""
"de:02000:61017::610139","","U Horner Rennbahn",,"53.554703317754","10.085307235419",0,,0,""
"de:02000:61012::610143","","Rudolf-Roß-Allee",,"53.558331593376","10.103177438266",0,,0,""
"de:02000:61013::610146","","Dannerallee",,"53.559880090358","10.108680925015",0,,0,""
"de:02000:61013::610148","","Dannerallee",,"53.559096973585","10.107860593667",0,,0,""
"de:02000:61012::610149","","Rudolf-Roß-Allee",,"53.558334238687","10.102890776541",0,,0,""
"de:02000:61045::610153","","Spliedtring",,"53.562530724230","10.108689911808",0,,0,""
"de:02000:61014::610156","","Böcklerstraße",,"53.563618652011","10.107646779383",0,,0,""
"de:02000:61014::610157","","Böcklerstraße",,"53.563465935883","10.107642786891",0,,0,""
"de:02000:61045::610159","","Spliedtring",,"53.562621676754","10.108571550813",0,,0,""
"de:02000:61032::610163","","Wöhlerstraße",,"53.535382466787","10.081569935702",0,,0,""
"de:02000:61022::610164","","Sievekingdamm",,"53.560553460709","10.052073957938",0,,0,""
"de:02000:61021::610165","","Caspar-Voght-Straße",,"53.560369795341","10.061667744947",0,,0,""
"de:02000:61020::610166","","BAB-Auffahrt Horn",,"53.559633028098","10.067716064226",0,,0,""
"de:02000:61019::610167","","Rhiemsweg",,"53.558051278186","10.074768950018",0,,0,""
"de:02000:61018::610169","","O'Swaldstraße",,"53.556433494545","10.079798285159",0,,0,""
"de:02000:61018::610170","","O'Swaldstraße",,"53.556290850485","10.079673928091",0,,0,""
"de:02000:61019::610171","","Rhiemsweg",,"53.557593421681","10.075723147691",0,,0,""
"de:02000:61020::610173","","BAB-Auffahrt Horn",,"53.558730722109","10.069142081689",0,,0,""
"de:02000:61021::610174","","Caspar-Voght-Straße",,"53.560104583919","10.062189307878",0,,0,""
"de:02000:61065::610175","","Hammer Steindamm",,"53.560764219898","10.055686149622",0,,0,""
"de:02000:61023::610176","","Am Elisabethgehölz",,"53.557186573148","10.061935079495",0,,0,""
"de:02000:61023::610179","","Am Elisabethgehölz",,"53.557455138213","10.062047444467",0,,0,""
"de:02000:61021::610180","","Caspar-Voght-Straße",,"53.560895658333","10.061137611270",0,,0,""
"de:02000:61046::610183","","Öjendorfer Weg",,"53.545604667803","10.114206428619",0,,0,""
"de:02000:61046::610184","","Öjendorfer Weg",,"53.545551049173","10.114174846379",0,,0,""
"de:02000:61007::610185","","Schiffbeker Höhe",,"53.547335256024","10.106859193474",0,,0,""
"de:02000:61063::610189","","Langer Hagen",,"53.535813672611","10.065577838006",0,,0,""
"de:02000:61062::610190","","Mühlenhagen",,"53.536623058917","10.067513754445",0,,0,""
"de:02000:61061::610191","","Billbrookdeich",,"53.535837378597","10.076966124743",0,,0,""
"de:02000:61062::610192","","Mühlenhagen",,"53.536606034912","10.067407742809",0,,0,""
"de:02000:61061::610193","","Billbrookdeich",,"53.535841740334","10.077479059025",0,,0,""
"de:02000:61050::610196","","Meriandamm",,"53.552299071670","10.111289163291",0,,0,""
"de:02000:61050::610197","","Meriandamm",,"53.552048661042","10.111161887101",0,,0,""
"de:02000:61051::610198","","Prinzenweg",,"53.554741262560","10.113420503540",0,,0,""
"de:02000:61051::610199","","Prinzenweg",,"53.554695502857","10.113509840213",0,,0,""
"de:02000:61052::610200","","Manshardtstraße",,"53.557877207740","10.116309810436",0,,0,""
"de:02000:61052::610201","","Manshardtstraße",,"53.557172565700","10.116713788338",0,,0,""
"de:02000:61052::610202","","Manshardtstraße",,"53.557125534817","10.116938909138",0,,0,""
"de:02000:61052::610203","","Manshardtstraße",,"53.556897919082","10.115333307305",0,,0,""
"de:02000:61053::610204","","Fuchsbergredder",,"53.560133054912","10.118180247907",0,,0,""
"de:02000:61053::610205","","Fuchsbergredder",,"53.560737705390","10.118860250375",0,,0,""
"de:02000:61064::610206","","Aschenputtelstraße",,"53.562116891164","10.119349443110",0,,0,""
"de:02000:61064::610207","","Aschenputtelstraße",,"53.563061201912","10.120219586970",0,,0,""
"de:02000:62035::610208","","Rübezahlstraße",,"53.563841473084","10.120376055033",0,,0,""
"de:02000:61055::610209","","Friedhof Öjendorf (Haupteingang)",,"53.557330014939","10.121969518569",0,,0,""
"de:02000:61055::610210","","Friedhof Öjendorf (Haupteingang)",,"53.557535638733","10.122080598326",0,,0,""
"de:02000:61056::610214","","Friedhof Öjendorf (Feierhallen)",,"53.556874784318","10.126424282850",0,,0,""
"de:02000:61057::610216","","Friedhof Öjendorf (Süd-Ring)",,"53.554226026247","10.123351043718",0,,0,""
"de:02000:61058::610217","","Friedhof Öjendorf (Ost-Ring)",,"53.555019418410","10.131641360413",0,,0,""
"de:02000:61069::610218","","Kattensteert",,"53.549789993090","10.099862084970",0,,0,""
"de:02000:61059::610219","","Friedhof Öjendorf (Nord-Ring)",,"53.559111584865","10.125532982743",0,,0,""
"de:02000:61069::610228","","Kattensteert",,"53.549886071171","10.099185614627",0,,0,""
"de:02000:61010::610229","","Sandkamp",,"53.553668187310","10.090441303747",0,,0,""
"de:01062:64011::620001","","Barsbüttel, Zum Dicken Busch",,"53.569562166161","10.152830942824",0,,0,""
"de:02000:64028::620002","","Kinderkrankenhaus Wilhelmstift",,"53.588938437916","10.159897779977",0,,0,""
"de:02000:60004:1:620004","","Gustav-Adolf-Straße",,"53.570446530613","10.083250031713",0,,0,""
"de:02000:62015::620005","","Bovestraße",,"53.569155017343","10.084968013119",0,,0,""
"de:02000:62016::620006","","AK Wandsbek",,"53.568645124880","10.091626825345",0,,0,""
"de:02000:62017::620007","","Osterkamp",,"53.569653664026","10.100211740166",0,,0,""
"de:02000:62011:1:620010","","Universität der Bundeswehr",,"53.570142677413","10.105643650369",0,,0,""
"de:02000:62011:2:620012","","Universität der Bundeswehr",,"53.570550743365","10.106212833183",0,,0,""
"de:02000:62010::620013","","Am Hohen Feld",,"53.570997719560","10.116127223761",0,,0,""
"de:02000:62009:1:620016","","Schiffbeker Weg",,"53.570970462003","10.125742409338",0,,0,""
"de:02000:62008::620017","","Denksteinweg",,"53.571062623493","10.131209485769",0,,0,""
"de:02000:62013::620022","","Gleiwitzer Bogen",,"53.570474747336","10.141066214770",0,,0,""
"de:02000:62014::620023","","Holsteiner Tor",,"53.569773944772","10.149500660529",0,,0,""
"de:02000:62014::620026","","Holsteiner Tor",,"53.569857702640","10.148265122405",0,,0,""
"de:02000:62013::620027","","Gleiwitzer Bogen",,"53.570671314004","10.140241255670",0,,0,""
"de:02000:62007:1:620028","","Jenfeld-Zentrum",,"53.571464267807","10.136232019983",0,,0,""
"de:02000:62006::620029","","Jenfelder Straße",,"53.573989743996","10.135227906038",0,,0,""
"de:02000:62005::620032","","Schweidnitzer Straße",,"53.576780221747","10.135649956302",0,,0,""
"de:02000:62004::620033","","Liegnitzer Straße",,"53.580184017510","10.137719203502",0,,0,""
"de:02000:62003::620036","","Berliner Platz",,"53.583961234616","10.141142764942",0,,1,""
"de:02000:62002::620037","","Potsdamer Straße",,"53.586111842936","10.149264693263",0,,0,""
"de:02000:62001::620038","","Hüllenkamp",,"53.587525478328","10.154558414243",0,,0,""
"de:02000:62001::620039","","Hüllenkamp",,"53.587821862289","10.155502801415",0,,0,""
"de:02000:62002::620040","","Potsdamer Straße",,"53.585717174596","10.148257319070",0,,0,""
"de:02000:62003::620043","","Berliner Platz",,"53.584020463310","10.140585650589",0,,0,""
"de:02000:62009:3:620044","","Schiffbeker Weg",,"53.570221514210","10.124167683634",0,,0,""
"de:02000:62003::620047","","Berliner Platz",,"53.583305319261","10.141140185938",0,,0,""
"de:02000:62004::620048","","Liegnitzer Straße",,"53.579970288256","10.137517175845",0,,0,""
"de:02000:62005::620049","","Schweidnitzer Straße",,"53.577225939918","10.136024257980",0,,0,""
"de:02000:62006::620050","","Jenfelder Straße",,"53.574126641550","10.135005124149",0,,0,""
"de:02000:62007:2:620052","","Jenfeld-Zentrum",,"53.571158930423","10.134321771096",0,,0,""
"de:02000:62008::620053","","Denksteinweg",,"53.571119235736","10.130924179794",0,,0,""
"de:02000:62009:2:620055","","Schiffbeker Weg",,"53.571677405627","10.125096980269",0,,0,""
"de:02000:62009:4:620057","","Schiffbeker Weg",,"53.571073457805","10.123390224907",0,,0,""
"de:02000:62010::620058","","Am Hohen Feld",,"53.571060461510","10.116143972685",0,,0,""
"de:02000:62011:2:620062","","Universität der Bundeswehr",,"53.570396247190","10.104457734005",0,,0,""
"de:02000:62017::620063","","Osterkamp",,"53.569665841330","10.099864868827",0,,0,""
"de:02000:62016::620064","","AK Wandsbek",,"53.568724017274","10.090859025361",0,,0,""
"de:02000:62015::620065","","Bovestraße",,"53.568876403798","10.086953392146",0,,0,""
"de:02000:62039::620066","","Friedhof Tonndorf",,"53.583194507658","10.114787738631",0,,0,""
"de:02000:62020::620067","","Jenfelder Allee",,"53.574797201613","10.126810332953",0,,0,""
"de:02000:62020::620068","","Jenfelder Allee",,"53.574662310965","10.126821840947",0,,0,""
"de:02000:62019::620072","","Bekkamp",,"53.575896202317","10.143552382000",0,,0,""
"de:02000:62019::620073","","Bekkamp",,"53.576246690395","10.143546748694",0,,0,""
"de:02000:62018::620074","","Glatzer Straße",,"53.579575282170","10.145010622167",0,,0,""
"de:02000:62018::620075","","Glatzer Straße",,"53.579704804387","10.144621556815",0,,0,""
"de:02000:62023::620077","","Schimmelmannstraße (Mitte)",,"53.573270484440","10.104577974211",0,,0,""
"de:02000:62023::620078","","Schimmelmannstraße (Mitte)",,"53.572837711693","10.106680162936",0,,0,""
"de:02000:62035::620082","","Rübezahlstraße",,"53.564633909579","10.121151678311",0,,0,""
"de:02000:62024::620084","","Am Jenfelder Moor",,"53.576270263867","10.113442949792",0,,0,""
"de:02000:62025::620085","","Albert-Schweitzer-Ring",,"53.579414722540","10.123098154773",0,,0,""
"de:02000:62027::620089","","Köpenicker Straße",,"53.584464802511","10.133545714080",0,,0,""
"de:02000:62024::620090","","Am Jenfelder Moor",,"53.576796318807","10.114845767381",0,,0,""
"de:02000:62025::620091","","Albert-Schweitzer-Ring",,"53.579407298946","10.122931873057",0,,0,""
"de:02000:62026::620093","","Kuehnstraße",,"53.582200228724","10.126916747072",0,,0,""
"de:02000:62027::620094","","Köpenicker Straße",,"53.584394253682","10.132456595424",0,,0,""
"de:02000:62029::620099","","Wilsonstraße",,"53.588165954385","10.129839180552",0,,0,""
"de:02000:62029::620100","","Wilsonstraße",,"53.587742461787","10.129012390804",0,,0,""
"de:02000:62031::620109","","Loher Straße",,"53.594041914597","10.145009280698",0,,0,""
"de:02000:62031::620110","","Loher Straße",,"53.593952806101","10.144931350667",0,,0,""
"de:02000:62032::620111","","Brockdorffstraße",,"53.596967122844","10.152912778920",0,,0,""
"de:02000:62032::620112","","Brockdorffstraße",,"53.596396133852","10.152489395229",0,,0,""
"de:02000:62033::620113","","Wilhelm-Grimm-Straße",,"53.600394707826","10.156208676623",0,,0,""
"de:02000:62036::620114","","Paracelsusstraße",,"53.597735307111","10.131756238019",0,,0,""
"de:02000:62038::620119","","Stemmeshay",,"53.591511547994","10.130472192774",0,,0,""
"de:02000:62038::620120","","Stemmeshay",,"53.591982088302","10.131073782203",0,,0,""
"de:02000:62039::620121","","Friedhof Tonndorf",,"53.582919281898","10.113466804134",0,,0,""
"de:02000:63050::630000","","Holzmühlenstraße",,"53.576876563966","10.083640970800",0,,0,""
"de:02000:63001::630001","","Gladowstraße",,"53.579401947957","10.075627872674",0,,0,""
"de:02000:63002:1:630002","","Walddörferstraße",,"53.580395413104","10.081043419223",0,,0,""
"de:02000:63003:3:630003","","Friedrich-Ebert-Damm (West)",,"53.584929180702","10.079483029951",0,,0,""
"de:02000:63003:4:630004","","Friedrich-Ebert-Damm (West)",,"53.585488744316","10.078213736994",0,,0,""
"de:02000:63004::630006","","Tilsiter Straße",,"53.589957146636","10.077919796836",0,,0,""
"de:02000:63005:1:630007","","U Wandsbek-Gartenstadt",,"53.592294568838","10.075789370841",0,,0,""
"de:02000:63006::630008","","Haldesdorfer Straße",,"53.596620487161","10.072349741962",0,,0,""
"de:02000:63007::630010","","Werner-Otto-Straße",,"53.602351292784","10.069549180751",0,,0,""
"de:02000:63008::630011","","Rahnstraße",,"53.606110376268","10.071200353151",0,,0,""
"de:02000:63009:2:630013","","Steilshooper Allee",,"53.609247143590","10.073108004289",0,,0,""
"de:02000:63010::630022","","Bramfelder Dorfplatz",,"53.615040510729","10.076352821002",0,,0,""
"de:02000:63009:1:630026","","Steilshooper Allee",,"53.608133844612","10.072007035710",0,,0,""
"de:02000:63000::630027","","Werner-Otto-Straße (Mitte)",,"53.600003799325","10.069807063207",0,,0,""
"de:02000:63008::630028","","Rahnstraße",,"53.604813876898","10.070487681235",0,,0,""
"de:02000:63007::630030","","Werner-Otto-Straße",,"53.600683553444","10.068147470455",0,,0,""
"de:02000:63007::630031","","Werner-Otto-Straße",,"53.599896404320","10.069759030273",0,,0,""
"de:02000:63006::630032","","Haldesdorfer Straße",,"53.596911068832","10.072009695621",0,,0,""
"de:02000:63005:1:630033","","U Wandsbek-Gartenstadt",,"53.592177649390","10.075801502052",0,,0,""
"de:02000:63005:2:630036","","U Wandsbek-Gartenstadt",,"53.591856693614","10.075521490115",0,,0,""
"de:02000:63005:2:630037","","U Wandsbek-Gartenstadt",,"53.591580789704","10.075227524106",0,,0,""
"de:02000:63004::630038","","Tilsiter Straße",,"53.588756642627","10.078523504513",0,,0,""
"de:02000:63003:1:630040","","Friedrich-Ebert-Damm (West)",,"53.585038078794","10.078368365187",0,,0,""
"de:02000:63003:2:630041","","Friedrich-Ebert-Damm (West)",,"53.584693444911","10.077725368227",0,,0,""
"de:02000:63002:1:630042","","Walddörferstraße",,"53.579800873574","10.081209424479",0,,0,""
"de:02000:62036::630045","","Paracelsusstraße",,"53.597598844283","10.131933849699",0,,0,""
"de:02000:63033::630048","","Rahlstedter Weg (Mitte)",,"53.602823800437","10.127662398809",0,,0,""
"de:02000:63034:1:630050","","U Farmsen",,"53.607187507892","10.117474707086",0,,1,""
"de:02000:63034:1:630051","","U Farmsen",,"53.607426292011","10.116921996762",0,,1,""
"de:02000:63035::630052","","Berufsförderungswerk Hamburg",,"53.612157418773","10.115445246698",0,,0,""
"de:02000:63036::630053","","Pflegezentrum Farmsen",,"53.613995908264","10.114859078265",0,,0,""
"de:02000:63037::630055","","Neusurenland",,"53.616993248714","10.113336227830",0,,0,""
"de:02000:63038::630056","","Stuhtsweg",,"53.619768088496","10.112547851382",0,,0,""
"de:02000:63058:3:630057","","Karlshöhe",,"53.623041912724","10.111243500113",0,,0,""
"de:02000:63038::630058","","Stuhtsweg",,"53.619534806305","10.112511487206",0,,0,""
"de:02000:63037::630060","","Neusurenland",,"53.616000454508","10.113808774154",0,,0,""
"de:02000:63036::630061","","Pflegezentrum Farmsen",,"53.613402031039","10.114949197823",0,,0,""
"de:02000:63035::630062","","Berufsförderungswerk Hamburg",,"53.611365065046","10.115620779611",0,,0,""
"de:02000:63034:2:630064","","U Farmsen",,"53.606673151568","10.118669786421",0,,1,""
"de:02000:63032::630067","","Eissporthalle",,"53.604257031410","10.119527452600",0,,0,""
"de:02000:63031::630068","","Eckerkoppel",,"53.600629853749","10.118253194685",0,,0,""
"de:02000:63029::630070","","Ebeersreye",,"53.595416472747","10.115562799738",0,,0,""
"de:02000:63028::630072","","Rentenversicherung Nord",,"53.592078099641","10.108346133296",0,,0,""
"de:02000:63027::630073","","Sylter Weg",,"53.590251400299","10.104749221512",0,,0,""
"de:02000:63026::630074","","Am Stadtrand",,"53.588813495345","10.097946023787",0,,0,""
"de:02000:63025::630075","","Helbingtwiete",,"53.587772162100","10.092935499160",0,,0,""
"de:02000:63024::630076","","Stephanstraße",,"53.586663557803","10.087394954537",0,,0,""
"de:02000:63024::630077","","Stephanstraße",,"53.586350724613","10.086224138659",0,,0,""
"de:02000:63025::630078","","Helbingtwiete",,"53.587761798647","10.093086247118",0,,0,""
"de:02000:63026::630079","","Am Stadtrand",,"53.589067593327","10.099628939780",0,,0,""
"de:02000:63027::630080","","Sylter Weg",,"53.590230364303","10.105080926393",0,,0,""
"de:02000:63028::630081","","Rentenversicherung Nord",,"53.592145626100","10.108816098962",0,,0,""
"de:02000:63029::630083","","Ebeersreye",,"53.595057031462","10.114601760811",0,,0,""
"de:02000:63031::630085","","Eckerkoppel",,"53.600414115400","10.118262598986",0,,0,""
"de:02000:63032::630086","","Eissporthalle",,"53.603975723930","10.119822155968",0,,0,""
"de:02000:63033::630088","","Rahlstedter Weg (Mitte)",,"53.602526928206","10.127699806702",0,,0,""
"de:02000:63047::630091","","Scharbeutzer Straße",,"53.599812135466","10.131630516642",0,,0,""
"de:02000:63049::630092","","Birkenallee",,"53.600081578588","10.136381010018",0,,0,""
"de:02000:63047::630093","","Scharbeutzer Straße",,"53.599873159695","10.131828525837",0,,0,""
"de:02000:63046::630094","","Timmendorfer Straße",,"53.603958949736","10.131152247559",0,,0,""
"de:02000:63048::630097","","Kohövedstraße",,"53.608784656450","10.144320466183",0,,0,""
"de:02000:63045:1:630098","","Alter Zollweg",,"53.608313528702","10.137191401122",0,,0,""
"de:02000:63045:3:630100","","Alter Zollweg",,"53.607476578938","10.136383250752",0,,0,""
"de:02000:63046::630101","","Timmendorfer Straße",,"53.604557821534","10.131485519829",0,,0,""
"de:02000:63044::630104","","Treptower Straße",,"53.613409041157","10.136164882760",0,,0,""
"de:02000:63044::630105","","Treptower Straße",,"53.614074080408","10.136152527518",0,,0,""
"de:02000:63043::630106","","Greifenberger Straße",,"53.616712308770","10.135573596782",0,,0,""
"de:02000:63043::630107","","Greifenberger Straße",,"53.617404870789","10.135501522379",0,,0,""
"de:02000:63042::630108","","Zamenhofweg",,"53.622145193211","10.134026762271",0,,0,""
"de:02000:63042::630109","","Zamenhofweg",,"53.622613032322","10.133963741135",0,,0,""
"de:02000:63041:1:630114","","Busbrookhöhe",,"53.623499023130","10.131493634826",0,,0,""
"de:02000:63040:2:630115","","Berner Heerweg",,"53.618772425571","10.124853584106",0,,0,""
"de:02000:63040:1:630118","","Berner Heerweg",,"53.618605351201","10.126375513180",0,,0,""
"de:02000:63041:2:630120","","Busbrookhöhe",,"53.621919864369","10.130302722071",0,,0,""
"de:02000:63039::630121","","Hermelinweg",,"53.616148925624","10.121957902931",0,,0,""
"de:02000:63039::630122","","Hermelinweg",,"53.616173607427","10.122200345585",0,,0,""
"de:02000:63037::630123","","Neusurenland",,"53.616333512171","10.114709141893",0,,0,""
"de:02000:63060::630124","","Tegelweg",,"53.605802723201","10.105986248574",0,,0,""
"de:02000:63060::630125","","Tegelweg",,"53.606005461978","10.107381492738",0,,0,""
"de:02000:63061::630126","","Haldesdorfer Straße (Nord)",,"53.607379711905","10.089831103544",0,,0,""
"de:02000:63061::630127","","Haldesdorfer Straße (Nord)",,"53.607296246665","10.090116014983",0,,0,""
"de:02000:63059::630128","","Kedenburgstraße",,"53.574970882364","10.087683490808",0,,0,""
"de:02000:63012::630129","","Heukoppel",,"53.611311046479","10.080398028195",0,,0,""
"de:02000:63011:1:630130","","Berner Chaussee",,"53.618631507422","10.079693430263",0,,0,""
"de:02000:63014::630134","","Ellernreihe",,"53.605507278596","10.080310228183",0,,0,""
"de:02000:63014::630135","","Ellernreihe",,"53.606633034761","10.081018850245",0,,0,""
"de:02000:63015::630136","","Karl-Müller-Ring",,"53.602983262845","10.078221442913",0,,0,""
"de:02000:63015::630137","","Karl-Müller-Ring",,"53.602937392926","10.078326022501",0,,0,""
"de:02000:63016::630138","","Hegholt",,"53.601374378826","10.081262144712",0,,0,""
"de:02000:63016::630139","","Hegholt",,"53.601031809651","10.080392332717",0,,0,""
"de:02000:63017::630140","","Carl-Bremer-Ring",,"53.603041862630","10.084658513010",0,,0,""
"de:02000:63017::630141","","Carl-Bremer-Ring",,"53.602990291261","10.084400372278",0,,0,""
"de:02000:63018::630142","","Turnierstieg",,"53.599403296203","10.091513859191",0,,0,""
"de:02000:63018::630143","","Turnierstieg",,"53.600169495131","10.091246611333",0,,0,""
"de:02000:63019::630144","","Barmwisch",,"53.596858403624","10.091735206033",0,,0,""
"de:02000:63019::630145","","Barmwisch",,"53.597090866380","10.091862042488",0,,0,""
"de:02000:63020::630146","","Voßkulen",,"53.594846412904","10.085732296147",0,,0,""
"de:02000:63020::630147","","Voßkulen",,"53.593843915781","10.086295622011",0,,0,""
"de:02000:63021::630149","","Rauschener Ring",,"53.594384256379","10.081204372968",0,,0,""
"de:02000:63023::630151","","Eulenkamp",,"53.583266734769","10.072509776010",0,,0,""
"de:02000:63063::630154","","Swebenhöhe",,"53.609668548965","10.108671036601",0,,0,""
"de:02000:63064::630155","","Rönkkoppel",,"53.613553055922","10.107397787117",0,,0,""
"de:02000:63051::630157","","Eichtalstraße",,"53.577929387831","10.089405167387",0,,0,""
"de:02000:63051::630158","","Eichtalstraße",,"53.577968759133","10.089028728858",0,,0,""
"de:02000:63052::630159","","Kurfürstenstraße",,"53.579123562546","10.097362589325",0,,0,""
"de:02000:63052::630160","","Kurfürstenstraße",,"53.578804063356","10.094968767864",0,,0,""
"de:02000:63053::630161","","Ölmühlenweg (Süd)",,"53.579914217057","10.101278561285",0,,0,""
"de:02000:63054::630165","","Birtstraße",,"53.575477997602","10.092180374730",0,,0,""
"de:02000:63054::630166","","Birtstraße",,"53.575357214773","10.092615076585",0,,0,""
"de:02000:63055::630167","","Ziethenstraße",,"53.576617902465","10.101132446867",0,,0,""
"de:02000:63055::630168","","Ziethenstraße",,"53.576792222603","10.102692038142",0,,0,""
"de:02000:63053::630169","","Ölmühlenweg (Süd)",,"53.580165763289","10.103232856501",0,,0,""
"de:02000:63030::630171","","Pulverhofsweg",,"53.598684611224","10.124470565281",0,,0,""
"de:02000:63030::630172","","Pulverhofsweg",,"53.598456868587","10.123845191172",0,,0,""
"de:02000:63056::630173","","Heinrich-Helbing-Straße",,"53.594730152301","10.060641553648",0,,0,""
"de:02000:63057::630174","","Bauernrosenweg",,"53.598187076592","10.065969717299",0,,0,""
"de:02000:63057::630175","","Bauernrosenweg",,"53.598280275244","10.065594433522",0,,0,""
"de:02000:70059:1:630176","","Fabriciusstraße",,"53.608536222062","10.068209782675",0,,0,""
"de:02000:63013:4:630177","","Ellernreihe (Mitte)",,"53.608840771758","10.080319820602",0,,0,""
"de:02000:63009:4:630186","","Steilshooper Allee",,"53.608689532120","10.074166595912",0,,0,""
"de:02000:63013:3:630187","","Ellernreihe (Mitte)",,"53.608120441219","10.081479909497",0,,0,""
"de:02000:63013:2:630188","","Ellernreihe (Mitte)",,"53.608462399935","10.079433839402",0,,0,""
"de:02000:63064::630191","","Rönkkoppel",,"53.613707589010","10.107205392796",0,,0,""
"de:02000:63063::630192","","Swebenhöhe",,"53.609885686676","10.108510524007",0,,0,""
"de:02000:63037::630194","","Neusurenland",,"53.616184351805","10.112393115526",0,,0,""
"de:02000:63065::630200","","Bullenkoppel",,"53.595288945031","10.091407736505",0,,0,""
"de:02000:63065::630201","","Bullenkoppel",,"53.595252184836","10.091497413792",0,,0,""
"de:01062:64011::640004","","Barsbüttel, Zum Dicken Busch",,"53.569209740813","10.153968574047",0,,0,""
"de:01062:64003::640008","","Barsbüttel, Rathaus",,"53.568927633147","10.169131309110",0,,0,""
"de:01062:64004::640009","","Barsbüttel, Bergredder",,"53.568803192040","10.175407360506",0,,0,""
"de:01062:64005::640010","","Barsbüttel, Am Bondenholz",,"53.568912094060","10.180769095217",0,,0,""
"de:01062:64006::640012","","Barsbüttel, Von-Bronsart-Straße",,"53.568417389046","10.187170595633",0,,0,""
"de:01062:64007::640013","","Willinghusen, Feldweg",,"53.565894079836","10.197816565133",0,,0,""
"de:01062:64008::640014","","Willinghusen, Alte Dorfstraße",,"53.561614454375","10.202540242773",0,,0,""
"de:01062:64009::640016","","Willinghusen, Lohe",,"53.559695934010","10.203889328054",0,,0,""
"de:01062:64012::640028","","Willinghusen, Zum Tunnel",,"53.562298584426","10.205095224575",0,,0,""
"de:01062:64008::640029","","Willinghusen, Alte Dorfstraße",,"53.561553513833","10.201451861622",0,,0,""
"de:01062:64007::640030","","Willinghusen, Feldweg",,"53.566362557218","10.197693963920",0,,0,""
"de:01062:64006::640031","","Barsbüttel, Von-Bronsart-Straße",,"53.568599297604","10.186949270554",0,,0,""
"de:01062:64005::640033","","Barsbüttel, Am Bondenholz",,"53.568995132133","10.179639284909",0,,0,""
"de:01062:64004::640034","","Barsbüttel, Bergredder",,"53.568909208373","10.175591441729",0,,0,""
"de:01062:64003::640035","","Barsbüttel, Rathaus",,"53.569099655235","10.168079405605",0,,0,""
"de:02000:64015::640044","","Hoffmannstieg",,"53.603150142960","10.180440325009",0,,0,""
"de:02000:64016::640045","","Prehnsweg",,"53.604565990357","10.175358327352",0,,0,""
"de:02000:64017::640046","","Sieker Landstraße",,"53.605603205836","10.168543202618",0,,0,""
"de:02000:64018::640047","","Schweriner Straße",,"53.605045482414","10.162152292504",0,,0,""
"de:02000:64018::640052","","Schweriner Straße",,"53.604999833190","10.162226577519",0,,0,""
"de:02000:64017::640053","","Sieker Landstraße",,"53.605682309296","10.166883500875",0,,0,""
"de:02000:64016::640054","","Prehnsweg",,"53.604606587545","10.173969547878",0,,0,""
"de:02000:64015::640055","","Hoffmannstieg",,"53.603049689871","10.180603700810",0,,0,""
"de:02000:64014::640058","","Großlohe",,"53.602096927697","10.181543950069",0,,0,""
"de:02000:64014::640059","","Großlohe",,"53.602676793913","10.181968033197",0,,0,""
"de:01062:64020::640062","","Barsbüttel, Kielende",,"53.570697882784","10.187355275053",0,,0,""
"de:01062:64020::640063","","Barsbüttel, Kielende",,"53.570277178623","10.187192527616",0,,0,""
"de:02000:64028::640067","","Kinderkrankenhaus Wilhelmstift",,"53.589446303822","10.162192137496",0,,0,""
"de:02000:64025::640071","","Am Hegen",,"53.589077658816","10.180561323788",0,,0,""
"de:02000:64023::640072","","Sorenkoppel",,"53.590991451254","10.185115349591",0,,0,""
"de:02000:64023::640075","","Sorenkoppel",,"53.591226805271","10.184940704217",0,,0,""
"de:02000:64023::640076","","Sorenkoppel",,"53.591415747866","10.184915787782",0,,0,""
"de:02000:64025::640077","","Am Hegen",,"53.589114485304","10.180471737850",0,,0,""
"de:02000:64026::640078","","Geesthachter Weg",,"53.588534132622","10.170956423174",0,,0,""
"de:02000:64027::640081","","Kielkoppelstraße",,"53.590133064046","10.166409491034",0,,0,""
"de:02000:62033::640083","","Wilhelm-Grimm-Straße",,"53.600018147830","10.156122856761",0,,0,""
"de:02000:64029::640085","","Schimmelreiterweg",,"53.590560512336","10.178714846516",0,,0,""
"de:02000:64030::640087","","Waldwinkel",,"53.592118231969","10.173819469584",0,,0,""
"de:02000:64031::640089","","Am Ohlendorffturm",,"53.595281673853","10.168258182879",0,,0,""
"de:02000:64032::640090","","Theodor-Storm-Straße",,"53.593198229530","10.160754596366",0,,0,""
"de:02000:64032::640091","","Theodor-Storm-Straße",,"53.593233282428","10.160846179383",0,,0,""
"de:02000:64033::640092","","Amtsstraße",,"53.596043329936","10.164790042071",0,,0,""
"de:02000:64033::640093","","Amtsstraße",,"53.596225090904","10.160882933120",0,,0,""
"de:02000:64033::640096","","Amtsstraße",,"53.597027907787","10.163336855940",0,,0,""
"de:02000:64034::640097","","Buchwaldstraße",,"53.598947031305","10.162800497255",0,,0,""
